{"meta":{"code":200},"notifications":[{"type":"notificationTray","item":{"unreadCount":0}}],"response":{"venues":[{"id":"4e355b51ae60d86c3abe5bf2","name":"Leavenworth Cafe","contact":{},"location":{"address":"24th & Leavenworth","lat":41.25228815572186,"lng":-95.94794533469143,"distance":14,"country":"United States"},"categories":[{"id":"4bf58dd8d48988d143941735","name":"Breakfast Spot","pluralName":"Breakfast Spots","shortName":"Breakfast \/ Brunch","icon":{"prefix":"https:\/\/foursquare.com\/img\/categories\/food\/default_","sizes":[32,44,64,88,256],"name":".png"},"primary":true}],"verified":false,"stats":{"checkinsCount":123,"usersCount":89,"tipCount":3},"specials":{"count":0,"items":[]},"hereNow":{"count":1}},{"id":"4b9aae17f964a52062cc35e3","name":"Ethiopian Restaurant","contact":{"phone":"4023450265","formattedPhone":"(402) 345-0265"},"location":{"address":"2555 Leavenworth St","crossStreet":"25th Ave","lat":41.25244322533464,"lng":-95.94818788990361,"distance":17,"postalCode":"68105","city":"Omaha","state":"NE","country":"United States"},"categories":[{"id":"4bf58dd8d48988d10a941735","name":"Ethiopian Restaurant","pluralName":"Ethiopian Restaurants","shortName":"Ethiopian","icon":{"prefix":"https:\/\/foursquare.com\/img\/categories\/food\/default_","sizes":[32,44,64,88,256],"name":".png"},"primary":true}],"verified":false,"stats":{"checkinsCount":20,"usersCount":14,"tipCount":0},"specials":{"count":0,"items":[]},"hereNow":{"count":0}},{"id":"4daa5daf0437dccbd8050310","name":"The Sandbox","contact":{},"location":{"address":"2401 Leavenworth St","crossStreet":"24th St","lat":41.25255138333333,"lng":-95.94746273333334,"distance":45,"postalCode":"68108","city":"Omaha","state":"Nebraska","country":"United States"},"categories":[{"id":"4bf58dd8d48988d11a941735","name":"Other Nightlife","pluralName":"Other Nightlife","shortName":"Other - Nightlife","icon":{"prefix":"https:\/\/foursquare.com\/img\/categories\/nightlife\/default_","sizes":[32,44,64,88,256],"name":".png"},"primary":true}],"verified":false,"stats":{"checkinsCount":76,"usersCount":54,"tipCount":1},"specials":{"count":0,"items":[]},"hereNow":{"count":0},"events":{"count":1,"summary":"1 show","items":[{"id":"4f713cd1af24f17be64d8cfd","name":"Screaming Females, Video Ranger, The Wayward Little Satan Daughters, Noah\u2019s Ark Was a Spaceship and 1 more","foreignIds":{"count":1,"items":[{"domain":"songkick.com","id":"12288428"}]},"categories":[{"id":"4e0a4b91bd41eda0d6092f89","name":"Music","pluralName":"Music","shortName":"Music","icon":{"prefix":"https:\/\/foursquare.com\/img\/categories\/arts_entertainment\/musicvenue_","sizes":[32,44,64,88,256],"name":".png"},"primary":true}],"allDay":true,"date":1334379600,"text":"","url":"http:\/\/www.songkick.com\/concerts\/12288428-screaming-females-at-sandbox?utm_source=4436&utm_medium=partner","images":[],"provider":{"name":"songkick","iconUrl":{"prefix":"https:\/\/playfoursquare.s3.amazonaws.com\/events\/images\/partners\/sk\/","sizes":[20,40],"name":"\/logo.png"},"urlText":"more info"},"stats":{"checkinsCount":0,"usersCount":0}}]}},{"id":"4c20ccdc8082d13a3734f82a","name":"Four Aces snacks tobacco","contact":{},"location":{"address":"2406 Leavenworth St","crossStreet":"24th and leavenworth","lat":41.252535581588745,"lng":-95.94760000705719,"distance":34,"postalCode":"68105","city":"Omaha","state":"Nebraska","country":"United States"},"categories":[],"verified":false,"stats":{"checkinsCount":161,"usersCount":44,"tipCount":0},"specials":{"count":0,"items":[]},"hereNow":{"count":0}},{"id":"4ca33ed4a73cb60c56e71678","name":"Judge Bataillon's courtroom","contact":{},"location":{"lat":41.252476,"lng":-95.947908,"distance":9,"city":"Omaha","state":"Nebraska","country":"United States"},"categories":[],"verified":false,"stats":{"checkinsCount":16,"usersCount":5,"tipCount":0},"specials":{"count":0,"items":[]},"hereNow":{"count":0}},{"id":"4f3cf45ae4b0075887447efd","name":"Precious Memories","contact":{},"location":{"lat":41.252187,"lng":-95.948197,"distance":31,"postalCode":"68108","city":"Omaha","state":"NE","country":"United States"},"categories":[{"id":"4bf58dd8d48988d130941735","name":"Building","pluralName":"Buildings","shortName":"Other - Buildings","icon":{"prefix":"https:\/\/foursquare.com\/img\/categories\/building\/default_","sizes":[32,44,64,88,256],"name":".png"},"primary":true}],"verified":false,"stats":{"checkinsCount":3,"usersCount":2,"tipCount":0},"specials":{"count":0,"items":[]},"hereNow":{"count":0}},{"id":"4b7571f5f964a520ec0c2ee3","name":"11-Worth Cafe","contact":{"phone":"4023466924","formattedPhone":"(402) 346-6924"},"location":{"address":"2419 Leavenworth St","crossStreet":"btw 24th & 25th St","lat":41.25241942241333,"lng":-95.94969749450684,"distance":143,"postalCode":"68105","city":"Omaha","state":"NE","country":"United States"},"categories":[{"id":"4bf58dd8d48988d143941735","name":"Breakfast Spot","pluralName":"Breakfast Spots","shortName":"Breakfast \/ Brunch","icon":{"prefix":"https:\/\/foursquare.com\/img\/categories\/food\/default_","sizes":[32,44,64,88,256],"name":".png"},"primary":true}],"verified":false,"stats":{"checkinsCount":969,"usersCount":495,"tipCount":15},"specials":{"count":0,"items":[]},"hereNow":{"count":1},"menu":{"url":"https:\/\/foursquare.com\/v\/11worth-cafe\/4b7571f5f964a520ec0c2ee3\/menu","mobileUrl":"https:\/\/foursquare.com\/v\/4b7571f5f964a520ec0c2ee3\/device_menu"}},{"id":"4f22b706e4b050258961418e","name":"water cooler","contact":{},"location":{"address":"2501 St Marys Ave, Omaha, NE 68105","lat":41.25337495619929,"lng":-95.94829110518239,"distance":109,"postalCode":"68105","city":"Omaha","state":"NE","country":"United States"},"categories":[{"id":"4bf58dd8d48988d128941735","name":"Cafeteria","pluralName":"Cafeterias","shortName":"Cafeteria","icon":{"prefix":"https:\/\/foursquare.com\/img\/categories\/building\/office_cafeteria_","sizes":[32,44,64,88,256],"name":".png"},"primary":true}],"verified":false,"stats":{"checkinsCount":65,"usersCount":5,"tipCount":1},"hereNow":{"count":0}},{"id":"4da5b61793a01f42facbf6c0","name":"Miller Electric Company","contact":{},"location":{"address":"2501 Saint Marys Ave","lat":41.25338097,"lng":-95.94864070415497,"distance":120,"postalCode":"68105","city":"Omaha","state":"NE","country":"United States"},"categories":[{"id":"4bf58dd8d48988d124941735","name":"Office","pluralName":"Offices","shortName":"Corporate \/ Office","icon":{"prefix":"https:\/\/foursquare.com\/img\/categories\/building\/default_","sizes":[32,44,64,88,256],"name":".png"},"primary":true}],"verified":false,"stats":{"checkinsCount":259,"usersCount":19,"tipCount":0},"hereNow":{"count":0}},{"id":"4e56594ed164a0684c5d5f0b","name":"Hy-vee","contact":{},"location":{"lat":41.24865855886675,"lng":-95.94772858404781,"distance":418,"city":"Omaha","state":"NE","country":"United States"},"categories":[{"id":"4bf58dd8d48988d146941735","name":"Deli or Bodega","pluralName":"Delis or Bodegas","shortName":"Deli \/ Bodega","icon":{"prefix":"https:\/\/foursquare.com\/img\/categories\/food\/deli_","sizes":[32,44,64,88,256],"name":".png"},"primary":true}],"verified":false,"stats":{"checkinsCount":15,"usersCount":9,"tipCount":0},"specials":{"count":0,"items":[]},"hereNow":{"count":0}},{"id":"4c324281ed37a59393916b03","name":"The Joint","contact":{},"location":{"address":"2514 Leavenworth St","lat":41.25260143,"lng":-95.94900124,"distance":87,"postalCode":"68105","city":"Omaha","state":"Nebraska","country":"United States"},"categories":[{"id":"4bf58dd8d48988d116941735","name":"Bar","pluralName":"Bars","shortName":"Bar","icon":{"prefix":"https:\/\/foursquare.com\/img\/categories\/nightlife\/bar_","sizes":[32,44,64,88,256],"name":".png"},"primary":true}],"verified":false,"stats":{"checkinsCount":11,"usersCount":6,"tipCount":0},"specials":{"count":0,"items":[]},"hereNow":{"count":0}},{"id":"4d6c29fbf7228cfadfa0ff45","name":"Back In The Day Antiques","contact":{},"location":{"address":"2561 levenworth","lat":41.252319,"lng":-95.950072,"distance":175,"city":"Omaha","state":"NE","country":"United States"},"categories":[{"id":"4bf58dd8d48988d116951735","name":"Antique Shop","pluralName":"Antique Shops","shortName":"Antiques","icon":{"prefix":"https:\/\/foursquare.com\/img\/categories\/shops\/antique_","sizes":[32,44,64,88,256],"name":".png"},"primary":true}],"verified":false,"stats":{"checkinsCount":93,"usersCount":42,"tipCount":2},"specials":{"count":0,"items":[]},"hereNow":{"count":0}},{"id":"4f45f525e4b00ed049c17bb9","name":"united states post office","contact":{},"location":{"address":"1024 Pacific St, Omaha, NE 68108","lat":41.25143743989909,"lng":-95.94700608750978,"distance":136,"postalCode":"68108","city":"Omaha","state":"Nebraska","country":"United States"},"categories":[{"id":"4bf58dd8d48988d172941735","name":"Post Office","pluralName":"Post Offices","shortName":"Post Office","icon":{"prefix":"https:\/\/foursquare.com\/img\/categories\/building\/postoffice_","sizes":[32,44,64,88,256],"name":".png"},"primary":true}],"verified":false,"stats":{"checkinsCount":21,"usersCount":11,"tipCount":0},"specials":{"count":0,"items":[]},"hereNow":{"count":0}},{"id":"4d560926b4deb1f7c0170c7a","name":"Joby C's","contact":{},"location":{"lat":41.252519488334656,"lng":-95.9490042,"distance":86,"country":"United States"},"categories":[],"verified":false,"stats":{"checkinsCount":33,"usersCount":27,"tipCount":0},"specials":{"count":0,"items":[]},"hereNow":{"count":0}},{"id":"4f3e8ef4e4b02787b44aa348","name":"V180 Media","contact":{},"location":{"lat":41.2526053096186,"lng":-95.95013352752558,"distance":181,"postalCode":"68105","city":"Omaha","state":"NE","country":"United States"},"categories":[{"id":"4bf58dd8d48988d124941735","name":"Office","pluralName":"Offices","shortName":"Corporate \/ Office","icon":{"prefix":"https:\/\/foursquare.com\/img\/categories\/building\/default_","sizes":[32,44,64,88,256],"name":".png"},"primary":true}],"verified":false,"stats":{"checkinsCount":21,"usersCount":2,"tipCount":1},"hereNow":{"count":0}},{"id":"4e8f54d28b81c6df65402f2c","name":"Pioneer Uniforms","contact":{},"location":{"lat":41.25240608152807,"lng":-95.94875557611553,"distance":64,"country":"United States"},"categories":[{"id":"4bf58dd8d48988d1ff941735","name":"Miscellaneous Shop","pluralName":"Miscellaneous Shops","shortName":"Other - Shop","icon":{"prefix":"https:\/\/foursquare.com\/img\/categories\/shops\/default_","sizes":[32,44,64,88,256],"name":".png"},"primary":true}],"verified":false,"stats":{"checkinsCount":4,"usersCount":4,"tipCount":0},"specials":{"count":0,"items":[]},"hereNow":{"count":0}},{"id":"4c5da96e857ca5933383cdcb","name":"Discount Laundry 1","contact":{"phone":"4023444417","formattedPhone":"(402) 344-4417"},"location":{"address":"2552 Leavenworth St","crossStreet":"25th Ave","lat":41.25253531,"lng":-95.94970155,"distance":144,"postalCode":"68105","city":"omaha","state":"Nebraska","country":"United States"},"categories":[{"id":"4bf58dd8d48988d1fc941735","name":"Laundromat or Dry Cleaner","pluralName":"Laundromats or Dry Cleaners","shortName":"Laundry","icon":{"prefix":"https:\/\/foursquare.com\/img\/categories\/shops\/laundry_","sizes":[32,44,64,88,256],"name":".png"},"primary":true}],"verified":false,"stats":{"checkinsCount":25,"usersCount":10,"tipCount":4},"specials":{"count":0,"items":[]},"hereNow":{"count":0}},{"id":"4d69c58360366a31dd8f5406","name":"The Sandbox","contact":{"phone":"4025042714","formattedPhone":"(402) 504-2714"},"location":{"address":"2406 Leavenworth St.","crossStreet":"24th & Leavenworth","lat":41.252412994289365,"lng":-95.94751203577053,"distance":39,"postalCode":"68108","city":"Omaha","state":"NE","country":"United States"},"categories":[{"id":"4bf58dd8d48988d1e5931735","name":"Music Venue","pluralName":"Music Venues","shortName":"Music Venue","icon":{"prefix":"https:\/\/foursquare.com\/img\/categories\/arts_entertainment\/musicvenue_","sizes":[32,44,64,88,256],"name":".png"},"primary":true}],"verified":false,"stats":{"checkinsCount":13,"usersCount":10,"tipCount":1},"specials":{"count":0,"items":[]},"hereNow":{"count":0}},{"id":"4cf7fc26d3a8a1cddfb3d943","name":"Impact Merch","contact":{},"location":{"crossStreet":"25th & St. Mary Ave","lat":41.253377,"lng":-95.947969,"distance":106,"city":"Omaha","state":"NE","country":"United States"},"categories":[],"verified":false,"stats":{"checkinsCount":13,"usersCount":10,"tipCount":0},"specials":{"count":0,"items":[]},"hereNow":{"count":0}},{"id":"4b884d65f964a520bbed31e3","name":"MCC Omaha","contact":{"phone":"4023452563","formattedPhone":"(402) 345-2563"},"location":{"address":"819 s 22nd st.","crossStreet":"Leavenworth","lat":41.251637009198305,"lng":-95.94462811946869,"distance":293,"postalCode":"68108","city":"Omaha","state":"Nebraska","country":"United States"},"categories":[{"id":"4bf58dd8d48988d132941735","name":"Church","pluralName":"Churches","shortName":"Church","icon":{"prefix":"https:\/\/foursquare.com\/img\/categories\/building\/religious_church_","sizes":[32,44,64,88,256],"name":".png"},"primary":true}],"verified":false,"stats":{"checkinsCount":408,"usersCount":35,"tipCount":0},"specials":{"count":0,"items":[]},"hereNow":{"count":0}},{"id":"4cbdd5b6a33bb1f7c47fa1fd","name":"Drake Court\/ Bull Durham Office","contact":{},"location":{"lat":41.2526899,"lng":-95.944537,"distance":289,"city":"Omaha","state":"NE","country":"United States"},"categories":[{"id":"4bf58dd8d48988d124941735","name":"Office","pluralName":"Offices","shortName":"Corporate \/ Office","icon":{"prefix":"https:\/\/foursquare.com\/img\/categories\/building\/default_","sizes":[32,44,64,88,256],"name":".png"},"primary":true}],"verified":false,"stats":{"checkinsCount":234,"usersCount":20,"tipCount":4},"hereNow":{"count":0}},{"id":"4cdb51cc4006a1431ee9d7b2","name":"Gehtto Parking Lot","contact":{},"location":{"lat":41.252655,"lng":-95.94459056854248,"distance":285,"country":"United States"},"categories":[{"id":"4c38df4de52ce0d596b336e1","name":"Parking","pluralName":"Parking","shortName":"Parking","icon":{"prefix":"https:\/\/foursquare.com\/img\/categories\/building\/parking_","sizes":[32,44,64,88,256],"name":".png"},"primary":true}],"verified":false,"stats":{"checkinsCount":107,"usersCount":21,"tipCount":0},"specials":{"count":0,"items":[]},"hereNow":{"count":0}},{"id":"4b8d40e0f964a52013f032e3","name":"Radler Studio","contact":{},"location":{"address":"2553 Leavenworth","lat":41.252208094891614,"lng":-95.94968452867637,"distance":144,"postalCode":"68105","city":"Omaha","state":"NE","country":"United States"},"categories":[{"id":"4bf58dd8d48988d124941735","name":"Office","pluralName":"Offices","shortName":"Corporate \/ Office","icon":{"prefix":"https:\/\/foursquare.com\/img\/categories\/building\/default_","sizes":[32,44,64,88,256],"name":".png"},"primary":true}],"verified":false,"stats":{"checkinsCount":10,"usersCount":8,"tipCount":0},"hereNow":{"count":0}},{"id":"4f269fe2e4b0717a6a9046e9","name":"Omaha Interzone","contact":{},"location":{"lat":41.252638378255085,"lng":-95.9445548242608,"distance":287,"postalCode":"68105","city":"Omaha","state":"NE","country":"United States"},"categories":[{"id":"4bf58dd8d48988d121941735","name":"Lounge","pluralName":"Lounges","shortName":"Lounge","icon":{"prefix":"https:\/\/foursquare.com\/img\/categories\/nightlife\/lounge_","sizes":[32,44,64,88,256],"name":".png"},"primary":true}],"verified":false,"stats":{"checkinsCount":43,"usersCount":2,"tipCount":4},"specials":{"count":0,"items":[]},"hereNow":{"count":0}},{"id":"4f340a2be4b06c231d321a0e","name":"Labpoint","contact":{},"location":{"crossStreet":"26th","lat":41.25255012620086,"lng":-95.95020578052508,"distance":186,"postalCode":"68105","city":"Omaha","state":"NE","country":"United States"},"categories":[{"id":"4bf58dd8d48988d124941735","name":"Office","pluralName":"Offices","shortName":"Corporate \/ Office","icon":{"prefix":"https:\/\/foursquare.com\/img\/categories\/building\/default_","sizes":[32,44,64,88,256],"name":".png"},"primary":true}],"verified":false,"stats":{"checkinsCount":4,"usersCount":2,"tipCount":1},"hereNow":{"count":0}},{"id":"4f14858ae4b04b3f06649772","name":"The Yiff Palace","contact":{},"location":{"address":"2120 Leavenworth St","lat":41.25276775816803,"lng":-95.94462191014367,"distance":283,"postalCode":"68102","city":"Omaha","state":"NE","country":"United States"},"categories":[{"id":"4bf58dd8d48988d1d6941735","name":"Strip Club","pluralName":"Strip Clubs","shortName":"Strip Club","icon":{"prefix":"https:\/\/foursquare.com\/img\/categories\/nightlife\/stripclub_","sizes":[32,44,64,88,256],"name":".png"},"primary":true}],"verified":false,"stats":{"checkinsCount":69,"usersCount":7,"tipCount":2},"specials":{"count":0,"items":[]},"hereNow":{"count":0}},{"id":"4f4c292ee4b027c871bf806b","name":"The Cuddle Couch","contact":{},"location":{"lat":41.252673,"lng":-95.944657,"distance":279,"postalCode":"68102","city":"Omaha","state":"NE","country":"United States"},"categories":[{"id":"4bf58dd8d48988d1f8941735","name":"Furniture or Home Store","pluralName":"Furniture or Home Stores","shortName":"Furniture \/ Home","icon":{"prefix":"https:\/\/foursquare.com\/img\/categories\/shops\/furniture_","sizes":[32,44,64,88,256],"name":".png"},"primary":true}],"verified":false,"stats":{"checkinsCount":26,"usersCount":3,"tipCount":1},"hereNow":{"count":0}},{"id":"4e66680152b17c8802f3bc86","name":"Family dollar","contact":{},"location":{"address":"834 south 24th st","lat":41.25124059687696,"lng":-95.94767697686615,"distance":133,"postalCode":"68105","city":"Omaha","state":"NE","country":"United States"},"categories":[],"verified":false,"stats":{"checkinsCount":9,"usersCount":7,"tipCount":0},"specials":{"count":0,"items":[]},"hereNow":{"count":0}},{"id":"4d9cc2c4a695721e456a020d","name":"Mushroom Palace","contact":{},"location":{"address":"111 north 33rd street","lat":41.25295044782246,"lng":-95.94430196275569,"distance":313,"city":"Omaha","state":"Nebraska","country":"United States"},"categories":[{"id":"4bf58dd8d48988d123951735","name":"Smoke Shop","pluralName":"Smoke Shops","shortName":"Tobacco & Cigars","icon":{"prefix":"https:\/\/foursquare.com\/img\/categories\/shops\/tobacco_","sizes":[32,44,64,88,256],"name":".png"},"primary":true}],"verified":false,"stats":{"checkinsCount":69,"usersCount":4,"tipCount":1},"specials":{"count":0,"items":[]},"hereNow":{"count":0}},{"id":"4dfa7c3ba809fe774224f489","name":"Crackville","contact":{},"location":{"lat":41.25414868025858,"lng":-95.94895168713543,"distance":209,"country":"United States"},"categories":[{"id":"4bf58dd8d48988d127941735","name":"Conference Room","pluralName":"Conference Rooms","shortName":"Conference room","icon":{"prefix":"https:\/\/foursquare.com\/img\/categories\/building\/default_","sizes":[32,44,64,88,256],"name":".png"},"primary":true}],"verified":false,"stats":{"checkinsCount":15,"usersCount":6,"tipCount":0},"hereNow":{"count":0}}]}}
