<?xml version="1.0" standalone="yes"?>
<kml xmlns="http://earth.google.com/kml/2.2">
  <Document>
    <name><![CDATA[GPS data]]></name>
    <visibility>1</visibility>
    <open>0</open>
    <Snippet><![CDATA[created using <A href="http://www.gpsvisualizer.com/?ref=ge&time=1334422923">GPS Visualizer</A>]]></Snippet>
    <Style id="gv_waypoint_normal">
      <IconStyle>
        <color>FFFFFFFF</color>
        <Icon>
          <href>http://maps.google.ca/mapfiles/kml/pal4/icon56.png</href>
        </Icon>
        <hotSpot x="0.5" xunits="fraction" y="0.5" yunits="fraction" />
      </IconStyle>
      <LabelStyle>
        <color>FFFFFFFF</color>
        <scale>1</scale>
      </LabelStyle>
      <BalloonStyle>
        <text><![CDATA[<p align="left" style="white-space:nowrap;"><font size="+1"><b>$[name]</b></font></p> <p align="left">$[description]</p>]]></text>
      </BalloonStyle>
    </Style>
    <Style id="gv_waypoint_highlight">
      <IconStyle>
        <color>FFFFFFFF</color>
        <scale>1.2</scale>
        <Icon>
          <href>http://maps.google.ca/mapfiles/kml/pal4/icon56.png</href>
        </Icon>
        <hotSpot x="0.5" xunits="fraction" y="0.5" yunits="fraction" />
      </IconStyle>
      <LabelStyle>
        <color>FFFFFFFF</color>
        <scale>1</scale>
      </LabelStyle>
      <BalloonStyle>
        <text><![CDATA[<p align="left" style="white-space:nowrap;"><font size="+1"><b>$[name]</b></font></p> <p align="left">$[description]</p>]]></text>
      </BalloonStyle>
    </Style>
    <StyleMap id="gv_waypoint">
      <Pair>
        <key>normal</key>
        <styleUrl>#gv_waypoint_normal</styleUrl>
      </Pair>
      <Pair>
        <key>highlight</key>
        <styleUrl>#gv_waypoint_highlight</styleUrl>
      </Pair>
    </StyleMap>
    <Folder id="Waypoints">
      <name>Waypoints</name>
      <visibility>1</visibility>
      <Placemark>
        <name>20 GRAND THEATRE</name>
        <description><![CDATA[14304 W MAPLE]]></description>
        <styleUrl>#gv_waypoint</styleUrl>
        <Point>
          <altitudeMode>clampToGround</altitudeMode>
          <coordinates>-96.135655976,41.292286095,0</coordinates>
        </Point>
      </Placemark>
      <Placemark>
        <name>3-5-7 CLUB</name>
        <description><![CDATA[2414 AMES AVE]]></description>
        <styleUrl>#gv_waypoint</styleUrl>
        <Point>
          <altitudeMode>clampToGround</altitudeMode>
          <coordinates>-95.947139139,41.299685858,0</coordinates>
        </Point>
      </Placemark>
      <Placemark>
        <name>3 HAPPINESS EXPRESS</name>
        <description><![CDATA[5103 LEAVENWORTH PLZ]]></description>
        <styleUrl>#gv_waypoint</styleUrl>
        <Point>
          <altitudeMode>clampToGround</altitudeMode>
          <coordinates>-95.992773364,41.252334114,0</coordinates>
        </Point>
      </Placemark>
      <Placemark>
        <name>3'S LOUNGE</name>
        <description><![CDATA[8919 NO 30 ST]]></description>
        <styleUrl>#gv_waypoint</styleUrl>
        <Point>
          <altitudeMode>clampToGround</altitudeMode>
          <coordinates>-95.96180387,41.341188706,0</coordinates>
        </Point>
      </Placemark>
      <Placemark>
        <name>801 CHOP HOUSE</name>
        <description><![CDATA[1403 FARNAM ST]]></description>
        <styleUrl>#gv_waypoint</styleUrl>
        <Point>
          <altitudeMode>clampToGround</altitudeMode>
          <coordinates>-95.935228904,41.257542764,0</coordinates>
        </Point>
      </Placemark>
      <Placemark>
        <name>ABRAHAM CATERING @ JOSLYN</name>
        <description><![CDATA[2200 DODGE ST]]></description>
        <styleUrl>#gv_waypoint</styleUrl>
        <Point>
          <altitudeMode>clampToGround</altitudeMode>
          <coordinates>-95.94560708,41.259773083,0</coordinates>
        </Point>
      </Placemark>
      <Placemark>
        <name>ABRAHAM CATERING @ THE GARDENS</name>
        <description><![CDATA[100 BANCROFT ST]]></description>
        <styleUrl>#gv_waypoint</styleUrl>
        <Point>
          <altitudeMode>clampToGround</altitudeMode>
          <coordinates>-95.916897189,41.234206221,0</coordinates>
        </Point>
      </Placemark>
      <Placemark>
        <name>ABSOLUTELY FRESH SEAFOOD CO</name>
        <description><![CDATA[807 SO 18 ST]]></description>
        <styleUrl>#gv_waypoint</styleUrl>
        <Point>
          <altitudeMode>clampToGround</altitudeMode>
          <coordinates>-95.939453958,41.252335374,0</coordinates>
        </Point>
      </Placemark>
      <Placemark>
        <name>ABSOLUTELY FRESH SEAFOOD CO</name>
        <description><![CDATA[1218 SO 119TH ST]]></description>
        <styleUrl>#gv_waypoint</styleUrl>
        <Point>
          <altitudeMode>clampToGround</altitudeMode>
          <coordinates>-96.098839898,41.247586047,0</coordinates>
        </Point>
      </Placemark>
      <Placemark>
        <name>A CATERED AFFAIR</name>
        <description><![CDATA[3016 NO 102 ST]]></description>
        <styleUrl>#gv_waypoint</styleUrl>
        <Point>
          <altitudeMode>clampToGround</altitudeMode>
          <coordinates>-96.071780643,41.285532469,0</coordinates>
        </Point>
      </Placemark>
      <Placemark>
        <name>ACCESS 66 CATERING</name>
        <description><![CDATA[3534 SO 108 ST]]></description>
        <styleUrl>#gv_waypoint</styleUrl>
        <Point>
          <altitudeMode>clampToGround</altitudeMode>
          <coordinates>-96.081601491,41.226118111,0</coordinates>
        </Point>
      </Placemark>
      <Placemark>
        <name>ADDY'S GRILL</name>
        <description><![CDATA[13806 P ST]]></description>
        <styleUrl>#gv_waypoint</styleUrl>
        <Point>
          <altitudeMode>clampToGround</altitudeMode>
          <coordinates>-96.13048071,41.206650131,0</coordinates>
        </Point>
      </Placemark>
      <Placemark>
        <name>AFRICAN FARMS</name>
        <description><![CDATA[2319 NO 90 ST]]></description>
        <styleUrl>#gv_waypoint</styleUrl>
        <Point>
          <altitudeMode>clampToGround</altitudeMode>
          <coordinates>-96.052478707,41.279834159,0</coordinates>
        </Point>
      </Placemark>
      <Placemark>
        <name>A GIRLS BEST FRIEND</name>
        <description><![CDATA[4655 LEAVENWORTH]]></description>
        <styleUrl>#gv_waypoint</styleUrl>
        <Point>
          <altitudeMode>clampToGround</altitudeMode>
          <coordinates>-95.983725501,41.252362636,0</coordinates>
        </Point>
      </Placemark>
      <Placemark>
        <name>A HILL OF BEANS INC</name>
        <description><![CDATA[14512 W CENTER RD]]></description>
        <styleUrl>#gv_waypoint</styleUrl>
        <Point>
          <altitudeMode>clampToGround</altitudeMode>
          <coordinates>-96.140996847,41.23396812,0</coordinates>
        </Point>
      </Placemark>
      <Placemark>
        <name>A J ICE CREAM (seasonal)</name>
        <description><![CDATA[3650 CROWN PT AVE]]></description>
        <styleUrl>#gv_waypoint</styleUrl>
        <Point>
          <altitudeMode>clampToGround</altitudeMode>
          <coordinates>-95.968216036,41.313039927,0</coordinates>
        </Point>
      </Placemark>
      <Placemark>
        <name>ALDI FOODS</name>
        <description><![CDATA[4801 NO 30 ST]]></description>
        <styleUrl>#gv_waypoint</styleUrl>
        <Point>
          <altitudeMode>clampToGround</altitudeMode>
          <coordinates>-95.956542836,41.302320008,0</coordinates>
        </Point>
      </Placemark>
      <Placemark>
        <name>ALDI FOODS #41</name>
        <description><![CDATA[4525 DAHLMAN AVE]]></description>
        <styleUrl>#gv_waypoint</styleUrl>
        <Point>
          <altitudeMode>clampToGround</altitudeMode>
          <coordinates>-95.958422419,41.214015578,0</coordinates>
        </Point>
      </Placemark>
      <Placemark>
        <name>ALDI FOODS #42</name>
        <description><![CDATA[2502 SO 133 PLZ]]></description>
        <styleUrl>#gv_waypoint</styleUrl>
        <Point>
          <altitudeMode>clampToGround</altitudeMode>
          <coordinates>-96.121559435,41.235788164,0</coordinates>
        </Point>
      </Placemark>
      <Placemark>
        <name>ALDI FOODS #75</name>
        <description><![CDATA[3433 NO 90TH STREET]]></description>
        <styleUrl>#gv_waypoint</styleUrl>
        <Point>
          <altitudeMode>clampToGround</altitudeMode>
          <coordinates>-96.052779286,41.290529896,0</coordinates>
        </Point>
      </Placemark>
      <Placemark>
        <name>ALEGENT HEALTH LAKESIDE HOSP</name>
        <description><![CDATA[16901 LAKESIDE HILLS]]></description>
        <styleUrl>#gv_waypoint</styleUrl>
        <Point>
          <altitudeMode>clampToGround</altitudeMode>
          <coordinates>-95.94059,41.26069,0</coordinates>
        </Point>
      </Placemark>
      <Placemark>
        <name>ALPINE INN</name>
        <description><![CDATA[10405 CALHOUN ROAD]]></description>
        <styleUrl>#gv_waypoint</styleUrl>
        <Point>
          <altitudeMode>clampToGround</altitudeMode>
          <coordinates>-95.973827805,41.35357237,0</coordinates>
        </Point>
      </Placemark>
      <Placemark>
        <name>AMATO'S FOODS INC</name>
        <description><![CDATA[6405 CENTER ST]]></description>
        <styleUrl>#gv_waypoint</styleUrl>
        <Point>
          <altitudeMode>clampToGround</altitudeMode>
          <coordinates>-96.012309795,41.237847612,0</coordinates>
        </Point>
      </Placemark>
      <Placemark>
        <name>AMAZING PIZZA MACHINE (THE)</name>
        <description><![CDATA[13955 SO S PLZ]]></description>
        <styleUrl>#gv_waypoint</styleUrl>
        <Point>
          <altitudeMode>clampToGround</altitudeMode>
          <coordinates>-96.131708595,41.202985736,0</coordinates>
        </Point>
      </Placemark>
      <Placemark>
        <name>AMCON DISTRIBUTING</name>
        <description><![CDATA[7405 IRVINGTON RD]]></description>
        <styleUrl>#gv_waypoint</styleUrl>
        <Point>
          <altitudeMode>clampToGround</altitudeMode>
          <coordinates>-96.061772507,41.326601703,0</coordinates>
        </Point>
      </Placemark>
      <Placemark>
        <name>AMERICAN BOTTLING COMPANY</name>
        <description><![CDATA[701 NO 108 CIR]]></description>
        <styleUrl>#gv_waypoint</styleUrl>
        <Point>
          <altitudeMode>clampToGround</altitudeMode>
          <coordinates>-96.081317609,41.265967011,0</coordinates>
        </Point>
      </Placemark>
      <Placemark>
        <name>AMES AVE CONVENIENCE</name>
        <description><![CDATA[4145 AMES AVE]]></description>
        <styleUrl>#gv_waypoint</styleUrl>
        <Point>
          <altitudeMode>clampToGround</altitudeMode>
          <coordinates>-95.975446585,41.299577076,0</coordinates>
        </Point>
      </Placemark>
      <Placemark>
        <name>AMSTERDAM FALAFEL &amp; KABON</name>
        <description><![CDATA[620 NO 50 ST]]></description>
        <styleUrl>#gv_waypoint</styleUrl>
        <Point>
          <altitudeMode>clampToGround</altitudeMode>
          <coordinates>-95.990249426,41.264773313,0</coordinates>
        </Point>
      </Placemark>
      <Placemark>
        <name>ANCHOR INN (seasonal)</name>
        <description><![CDATA[2499 FREEDOM PARK RD]]></description>
        <styleUrl>#gv_waypoint</styleUrl>
        <Point>
          <altitudeMode>clampToGround</altitudeMode>
          <coordinates>-95.898824348,41.277912408,0</coordinates>
        </Point>
      </Placemark>
      <Placemark>
        <name>ANDERSON AMOCO FOOD SHOP</name>
        <description><![CDATA[17915 ARBOR ST]]></description>
        <styleUrl>#gv_waypoint</styleUrl>
        <Point>
          <altitudeMode>clampToGround</altitudeMode>
          <coordinates>-96.195357801,41.237361978,0</coordinates>
        </Point>
      </Placemark>
      <Placemark>
        <name>ANDERSON BP AMOCO</name>
        <description><![CDATA[3423 S 72 ST]]></description>
        <styleUrl>#gv_waypoint</styleUrl>
        <Point>
          <altitudeMode>clampToGround</altitudeMode>
          <coordinates>-96.02388407,41.227181652,0</coordinates>
        </Point>
      </Placemark>
      <Placemark>
        <name>ANDY'S PLACE</name>
        <description><![CDATA[3701 F ST]]></description>
        <styleUrl>#gv_waypoint</styleUrl>
        <Point>
          <altitudeMode>clampToGround</altitudeMode>
          <coordinates>-95.968944487,41.219744259,0</coordinates>
        </Point>
      </Placemark>
      <Placemark>
        <name>APPLEBEE'S NEIGH BAR/GRILL</name>
        <description><![CDATA[13208 W MAPLE RD]]></description>
        <styleUrl>#gv_waypoint</styleUrl>
        <Point>
          <altitudeMode>clampToGround</altitudeMode>
          <coordinates>-96.119909163,41.292311417,0</coordinates>
        </Point>
      </Placemark>
      <Placemark>
        <name>APPLEBEE'S NEIGH BAR/GRILL</name>
        <description><![CDATA[2829 SO 181ST ST]]></description>
        <styleUrl>#gv_waypoint</styleUrl>
        <Point>
          <altitudeMode>clampToGround</altitudeMode>
          <coordinates>-96.197219397,41.232487652,0</coordinates>
        </Point>
      </Placemark>
      <Placemark>
        <name>APPLEBEE'S NEIGH BAR/GRILL</name>
        <description><![CDATA[6222 NO 72 ST]]></description>
        <styleUrl>#gv_waypoint</styleUrl>
        <Point>
          <altitudeMode>clampToGround</altitudeMode>
          <coordinates>-96.023947022,41.315279238,0</coordinates>
        </Point>
      </Placemark>
      <Placemark>
        <name>APPLEBEE'S NEIGH BAR/GRILL</name>
        <description><![CDATA[7450 DODGE ST]]></description>
        <styleUrl>#gv_waypoint</styleUrl>
        <Point>
          <altitudeMode>clampToGround</altitudeMode>
          <coordinates>-96.028866314,41.259683151,0</coordinates>
        </Point>
      </Placemark>
      <Placemark>
        <name>APPLEBEE'S NEIGH BAR/GRILL</name>
        <description><![CDATA[3350 SO 143 PLAZA]]></description>
        <styleUrl>#gv_waypoint</styleUrl>
        <Point>
          <altitudeMode>clampToGround</altitudeMode>
          <coordinates>-96.137450455,41.228377751,0</coordinates>
        </Point>
      </Placemark>
      <Placemark>
        <name>ARAMARK/CONAGRA</name>
        <description><![CDATA[5645 NO 90 ST]]></description>
        <styleUrl>#gv_waypoint</styleUrl>
        <Point>
          <altitudeMode>clampToGround</altitudeMode>
          <coordinates>-96.052454489,41.311248845,0</coordinates>
        </Point>
      </Placemark>
      <Placemark>
        <name>ARAMARK REFRESHMENT SERVICE</name>
        <description><![CDATA[4415 SO 89TH ST]]></description>
        <styleUrl>#gv_waypoint</styleUrl>
        <Point>
          <altitudeMode>clampToGround</altitudeMode>
          <coordinates>-96.048957168,41.215796236,0</coordinates>
        </Point>
      </Placemark>
      <Placemark>
        <name>ARBORETUM ON FARNAM (THE)</name>
        <description><![CDATA[8141 FARNAM DR]]></description>
        <styleUrl>#gv_waypoint</styleUrl>
        <Point>
          <altitudeMode>clampToGround</altitudeMode>
          <coordinates>-96.039613212,41.258801815,0</coordinates>
        </Point>
      </Placemark>
      <Placemark>
        <name>ARBY'S ROAST BEEF REST</name>
        <description><![CDATA[4615 NO 72 St]]></description>
        <styleUrl>#gv_waypoint</styleUrl>
        <Point>
          <altitudeMode>clampToGround</altitudeMode>
          <coordinates>-96.023767158,41.300728208,0</coordinates>
        </Point>
      </Placemark>
      <Placemark>
        <name>ARBY'S ROAST BEEF REST</name>
        <description><![CDATA[10200 W DODGE RD]]></description>
        <styleUrl>#gv_waypoint</styleUrl>
        <Point>
          <altitudeMode>clampToGround</altitudeMode>
          <coordinates>-96.06993929,41.263488146,0</coordinates>
        </Point>
      </Placemark>
      <Placemark>
        <name>ARBY'S ROAST BEEF REST</name>
        <description><![CDATA[4358 DODGE ST]]></description>
        <styleUrl>#gv_waypoint</styleUrl>
        <Point>
          <altitudeMode>clampToGround</altitudeMode>
          <coordinates>-95.978459314,41.259674157,0</coordinates>
        </Point>
      </Placemark>
      <Placemark>
        <name>ARBY'S ROAST BEEF REST</name>
        <description><![CDATA[3001 SO 144TH ST]]></description>
        <styleUrl>#gv_waypoint</styleUrl>
        <Point>
          <altitudeMode>clampToGround</altitudeMode>
          <coordinates>-96.138380898,41.229154417,0</coordinates>
        </Point>
      </Placemark>
      <Placemark>
        <name>ARBY'S ROAST BEEF REST</name>
        <description><![CDATA[5029 SO 108 ST]]></description>
        <styleUrl>#gv_waypoint</styleUrl>
        <Point>
          <altitudeMode>clampToGround</altitudeMode>
          <coordinates>-96.081422693,41.208439781,0</coordinates>
        </Point>
      </Placemark>
      <Placemark>
        <name>ARBY'S ROAST BEEF REST</name>
        <description><![CDATA[17220 W CENTER RD]]></description>
        <styleUrl>#gv_waypoint</styleUrl>
        <Point>
          <altitudeMode>clampToGround</altitudeMode>
          <coordinates>-96.184080303,41.234196364,0</coordinates>
        </Point>
      </Placemark>
      <Placemark>
        <name>ARBY'S ROAST BEEF REST</name>
        <description><![CDATA[2910 SO 120 ST]]></description>
        <styleUrl>#gv_waypoint</styleUrl>
        <Point>
          <altitudeMode>clampToGround</altitudeMode>
          <coordinates>-96.10074013,41.232190876,0</coordinates>
        </Point>
      </Placemark>
      <Placemark>
        <name>ARBY'S ROAST BEEF REST</name>
        <description><![CDATA[8429 W CENTER RD]]></description>
        <styleUrl>#gv_waypoint</styleUrl>
        <Point>
          <altitudeMode>clampToGround</altitudeMode>
          <coordinates>-96.044964178,41.234223344,0</coordinates>
        </Point>
      </Placemark>
      <Placemark>
        <name>ARBY'S ROAST BEEF REST</name>
        <description><![CDATA[14548 W CENTER RD]]></description>
        <styleUrl>#gv_waypoint</styleUrl>
        <Point>
          <altitudeMode>clampToGround</altitudeMode>
          <coordinates>-96.141668276,41.233926568,0</coordinates>
        </Point>
      </Placemark>
      <Placemark>
        <name>ARBY'S ROAST BEEF REST</name>
        <description><![CDATA[13610 W MAPLE RD]]></description>
        <styleUrl>#gv_waypoint</styleUrl>
        <Point>
          <altitudeMode>clampToGround</altitudeMode>
          <coordinates>-96.126377219,41.29223678,0</coordinates>
        </Point>
      </Placemark>
      <Placemark>
        <name>ARBY'S ROAST BEEF REST</name>
        <description><![CDATA[1736 SO 72 ST]]></description>
        <styleUrl>#gv_waypoint</styleUrl>
        <Point>
          <altitudeMode>clampToGround</altitudeMode>
          <coordinates>-96.023974002,41.242470127,0</coordinates>
        </Point>
      </Placemark>
      <Placemark>
        <name>ARBY'S ROAST BEEF REST</name>
        <description><![CDATA[3417 NO 90 ST]]></description>
        <styleUrl>#gv_waypoint</styleUrl>
        <Point>
          <altitudeMode>clampToGround</altitudeMode>
          <coordinates>-96.05273432,41.290287079,0</coordinates>
        </Point>
      </Placemark>
      <Placemark>
        <name>ARBY'S ROAST BEEF REST</name>
        <description><![CDATA[5323 CENTER ST]]></description>
        <styleUrl>#gv_waypoint</styleUrl>
        <Point>
          <altitudeMode>clampToGround</altitudeMode>
          <coordinates>-95.995691471,41.24054192,0</coordinates>
        </Point>
      </Placemark>
      <Placemark>
        <name>ARBY'S ROAST BEEF REST</name>
        <description><![CDATA[14145 S ST]]></description>
        <styleUrl>#gv_waypoint</styleUrl>
        <Point>
          <altitudeMode>clampToGround</altitudeMode>
          <coordinates>-96.135301076,41.203943171,0</coordinates>
        </Point>
      </Placemark>
      <Placemark>
        <name>ARBY'S ROAST BEEF REST</name>
        <description><![CDATA[4144 SO 50TH]]></description>
        <styleUrl>#gv_waypoint</styleUrl>
        <Point>
          <altitudeMode>clampToGround</altitudeMode>
          <coordinates>-95.990404448,41.217942299,0</coordinates>
        </Point>
      </Placemark>
      <Placemark>
        <name>ARCTIC GLACIER ICE CO</name>
        <description><![CDATA[8211 F ST]]></description>
        <styleUrl>#gv_waypoint</styleUrl>
        <Point>
          <altitudeMode>clampToGround</altitudeMode>
          <coordinates>-96.041038696,41.219720846,0</coordinates>
        </Point>
      </Placemark>
      <Placemark>
        <name>ARENA SPORTS BAR &amp; GRILL</name>
        <description><![CDATA[3809 NO 90 ST]]></description>
        <styleUrl>#gv_waypoint</styleUrl>
        <Point>
          <altitudeMode>clampToGround</altitudeMode>
          <coordinates>-96.052590429,41.294289062,0</coordinates>
        </Point>
      </Placemark>
      <Placemark>
        <name>ARTHUR'S 4 SEASONS</name>
        <description><![CDATA[222 NO 114 ST]]></description>
        <styleUrl>#gv_waypoint</styleUrl>
        <Point>
          <altitudeMode>clampToGround</altitudeMode>
          <coordinates>-96.091078454,41.259778346,0</coordinates>
        </Point>
      </Placemark>
      <Placemark>
        <name>ASSUMPTION SCHOOL</name>
        <description><![CDATA[5601 SO 22 ST]]></description>
        <styleUrl>#gv_waypoint</styleUrl>
        <Point>
          <altitudeMode>clampToGround</altitudeMode>
          <coordinates>-95.944312056,41.201703859,0</coordinates>
        </Point>
      </Placemark>
      <Placemark>
        <name>ATHENIAN GYROS</name>
        <description><![CDATA[210 SO 16 ST]]></description>
        <styleUrl>#gv_waypoint</styleUrl>
        <Point>
          <altitudeMode>clampToGround</altitudeMode>
          <coordinates>-95.937180433,41.258343161,0</coordinates>
        </Point>
      </Placemark>
      <Placemark>
        <name>ATTITUDE ON FOOD</name>
        <description><![CDATA[2405 N ST]]></description>
        <styleUrl>#gv_waypoint</styleUrl>
        <Point>
          <altitudeMode>clampToGround</altitudeMode>
          <coordinates>-95.947584965,41.209482131,0</coordinates>
        </Point>
      </Placemark>
      <Placemark>
        <name>AUNTIE ANNE'S - OAKVIEW MALL</name>
        <description><![CDATA[3001 SO 144 ST]]></description>
        <styleUrl>#gv_waypoint</styleUrl>
        <Point>
          <altitudeMode>clampToGround</altitudeMode>
          <coordinates>-96.138380898,41.229154417,0</coordinates>
        </Point>
      </Placemark>
      <Placemark>
        <name>AUSSIE'S PUB INC</name>
        <description><![CDATA[2326 NO 72 ST]]></description>
        <styleUrl>#gv_waypoint</styleUrl>
        <Point>
          <altitudeMode>clampToGround</altitudeMode>
          <coordinates>-96.023967394,41.279856064,0</coordinates>
        </Point>
      </Placemark>
      <Placemark>
        <name>AVP ENERGY #3 - SINCLAIR</name>
        <description><![CDATA[10505 PACIFIC ST]]></description>
        <styleUrl>#gv_waypoint</styleUrl>
        <Point>
          <altitudeMode>clampToGround</altitudeMode>
          <coordinates>-96.07714192,41.248711422,0</coordinates>
        </Point>
      </Placemark>
      <Placemark>
        <name>BABY BLUE SUSHI SAKE GRILL</name>
        <description><![CDATA[16939 WRIGHT PLZ]]></description>
        <styleUrl>#gv_waypoint</styleUrl>
        <Point>
          <altitudeMode>clampToGround</altitudeMode>
          <coordinates>-96.178487903,41.23298589,0</coordinates>
        </Point>
      </Placemark>
      <Placemark>
        <name>BAGEL BIN INC</name>
        <description><![CDATA[1215-19 SO 119 ST]]></description>
        <styleUrl>#gv_waypoint</styleUrl>
        <Point>
          <altitudeMode>clampToGround</altitudeMode>
          <coordinates>-95.94059,41.26069,0</coordinates>
        </Point>
      </Placemark>
      <Placemark>
        <name>BAG N SAVE</name>
        <description><![CDATA[3003 NO 108TH ST]]></description>
        <styleUrl>#gv_waypoint</styleUrl>
        <Point>
          <altitudeMode>clampToGround</altitudeMode>
          <coordinates>-96.081431686,41.286024293,0</coordinates>
        </Point>
      </Placemark>
      <Placemark>
        <name>BAG N SAVE</name>
        <description><![CDATA[2011 NO 156TH ST]]></description>
        <styleUrl>#gv_waypoint</styleUrl>
        <Point>
          <altitudeMode>clampToGround</altitudeMode>
          <coordinates>-96.157993312,41.277765615,0</coordinates>
        </Point>
      </Placemark>
      <Placemark>
        <name>BAG N SAVE</name>
        <description><![CDATA[5025 GROVER ST]]></description>
        <styleUrl>#gv_waypoint</styleUrl>
        <Point>
          <altitudeMode>clampToGround</altitudeMode>
          <coordinates>-95.99202109,41.226983802,0</coordinates>
        </Point>
      </Placemark>
      <Placemark>
        <name>BAG N SAVE</name>
        <description><![CDATA[15370 WEIR ST]]></description>
        <styleUrl>#gv_waypoint</styleUrl>
        <Point>
          <altitudeMode>clampToGround</altitudeMode>
          <coordinates>-96.155463876,41.206263422,0</coordinates>
        </Point>
      </Placemark>
      <Placemark>
        <name>BAG N SAVE</name>
        <description><![CDATA[770 NO 114 ST]]></description>
        <styleUrl>#gv_waypoint</styleUrl>
        <Point>
          <altitudeMode>clampToGround</altitudeMode>
          <coordinates>-96.092205428,41.267374048,0</coordinates>
        </Point>
      </Placemark>
      <Placemark>
        <name>BAG N SAVE #8</name>
        <description><![CDATA[2646 NO 90TH ST]]></description>
        <styleUrl>#gv_waypoint</styleUrl>
        <Point>
          <altitudeMode>clampToGround</altitudeMode>
          <coordinates>-96.052771303,41.283307353,0</coordinates>
        </Point>
      </Placemark>
      <Placemark>
        <name>BAILEY'S</name>
        <description><![CDATA[1259 SO 120 ST]]></description>
        <styleUrl>#gv_waypoint</styleUrl>
        <Point>
          <altitudeMode>clampToGround</altitudeMode>
          <coordinates>-96.100567841,41.246753267,0</coordinates>
        </Point>
      </Placemark>
      <Placemark>
        <name>BAKER'S #301</name>
        <description><![CDATA[4405 NO 72 ST]]></description>
        <styleUrl>#gv_waypoint</styleUrl>
        <Point>
          <altitudeMode>clampToGround</altitudeMode>
          <coordinates>-96.023767158,41.298542855,0</coordinates>
        </Point>
      </Placemark>
      <Placemark>
        <name>BAKER'S #302</name>
        <description><![CDATA[12025 W CENTER RD]]></description>
        <styleUrl>#gv_waypoint</styleUrl>
        <Point>
          <altitudeMode>clampToGround</altitudeMode>
          <coordinates>-96.101639452,41.233980527,0</coordinates>
        </Point>
      </Placemark>
      <Placemark>
        <name>BAKER'S #315</name>
        <description><![CDATA[13250 W MAPLE RD]]></description>
        <styleUrl>#gv_waypoint</styleUrl>
        <Point>
          <altitudeMode>clampToGround</altitudeMode>
          <coordinates>-96.119886696,41.292256594,0</coordinates>
        </Point>
      </Placemark>
      <Placemark>
        <name>BAKER'S #316</name>
        <description><![CDATA[7312 NO 30 ST]]></description>
        <styleUrl>#gv_waypoint</styleUrl>
        <Point>
          <altitudeMode>clampToGround</altitudeMode>
          <coordinates>-95.957734572,41.32651916,0</coordinates>
        </Point>
      </Placemark>
      <Placemark>
        <name>BAKER'S #320</name>
        <description><![CDATA[17370 LAKESIDE HILL PLZ]]></description>
        <styleUrl>#gv_waypoint</styleUrl>
        <Point>
          <altitudeMode>clampToGround</altitudeMode>
          <coordinates>-96.186451233,41.235583989,0</coordinates>
        </Point>
      </Placemark>
      <Placemark>
        <name>BAKER'S #321</name>
        <description><![CDATA[505 NO 155 PLZ]]></description>
        <styleUrl>#gv_waypoint</styleUrl>
        <Point>
          <altitudeMode>clampToGround</altitudeMode>
          <coordinates>-96.155697699,41.263514262,0</coordinates>
        </Point>
      </Placemark>
      <Placemark>
        <name>BAR 415</name>
        <description><![CDATA[415 SO 13 ST]]></description>
        <styleUrl>#gv_waypoint</styleUrl>
        <Point>
          <altitudeMode>clampToGround</altitudeMode>
          <coordinates>-95.933196936,41.256348892,0</coordinates>
        </Point>
      </Placemark>
      <Placemark>
        <name>BARFLY</name>
        <description><![CDATA[704 NO 114 ST]]></description>
        <styleUrl>#gv_waypoint</styleUrl>
        <Point>
          <altitudeMode>clampToGround</altitudeMode>
          <coordinates>-96.090982486,41.265537737,0</coordinates>
        </Point>
      </Placemark>
      <Placemark>
        <name>BARLEY STREET TAVERN</name>
        <description><![CDATA[2735 NO 62 ST]]></description>
        <styleUrl>#gv_waypoint</styleUrl>
        <Point>
          <altitudeMode>clampToGround</altitudeMode>
          <coordinates>-96.008388751,41.284162696,0</coordinates>
        </Point>
      </Placemark>
      <Placemark>
        <name>BARNES &amp; NOBLE INC</name>
        <description><![CDATA[3333 OAKVIEW DRIVE]]></description>
        <styleUrl>#gv_waypoint</styleUrl>
        <Point>
          <altitudeMode>clampToGround</altitudeMode>
          <coordinates>-96.13282794,41.227100713,0</coordinates>
        </Point>
      </Placemark>
      <Placemark>
        <name>BARNEY'S 308</name>
        <description><![CDATA[308 SO 24 ST]]></description>
        <styleUrl>#gv_waypoint</styleUrl>
        <Point>
          <altitudeMode>clampToGround</altitudeMode>
          <coordinates>-95.94700201,41.257473149,0</coordinates>
        </Point>
      </Placemark>
      <Placemark>
        <name>BARRY O'S</name>
        <description><![CDATA[420 SO 10 ST]]></description>
        <styleUrl>#gv_waypoint</styleUrl>
        <Point>
          <altitudeMode>clampToGround</altitudeMode>
          <coordinates>-95.92933033,41.256280129,0</coordinates>
        </Point>
      </Placemark>
      <Placemark>
        <name>BASKET FOOD</name>
        <description><![CDATA[4518 SO 24 ST]]></description>
        <styleUrl>#gv_waypoint</styleUrl>
        <Point>
          <altitudeMode>clampToGround</altitudeMode>
          <coordinates>-95.947045995,41.214150476,0</coordinates>
        </Point>
      </Placemark>
      <Placemark>
        <name>BEAR CREEK COFFEE</name>
        <description><![CDATA[14505 F ST]]></description>
        <styleUrl>#gv_waypoint</styleUrl>
        <Point>
          <altitudeMode>clampToGround</altitudeMode>
          <coordinates>-96.140670028,41.219582381,0</coordinates>
        </Point>
      </Placemark>
      <Placemark>
        <name>BEL-AIR BANQUET ROOM (THE)</name>
        <description><![CDATA[12100 W CENTER RD]]></description>
        <styleUrl>#gv_waypoint</styleUrl>
        <Point>
          <altitudeMode>clampToGround</altitudeMode>
          <coordinates>-96.101975484,41.234149099,0</coordinates>
        </Point>
      </Placemark>
      <Placemark>
        <name>BELLE RYAN SCHOOL CAFETERIA</name>
        <description><![CDATA[1807 SO 60 ST]]></description>
        <styleUrl>#gv_waypoint</styleUrl>
        <Point>
          <altitudeMode>clampToGround</altitudeMode>
          <coordinates>-96.004673029,41.242114174,0</coordinates>
        </Point>
      </Placemark>
      <Placemark>
        <name>BELVEDERE SCHOOL CAFETERIA</name>
        <description><![CDATA[6224 NO 37 ST]]></description>
        <styleUrl>#gv_waypoint</styleUrl>
        <Point>
          <altitudeMode>clampToGround</altitudeMode>
          <coordinates>-95.968639763,41.315063585,0</coordinates>
        </Point>
      </Placemark>
      <Placemark>
        <name>BENE PIZZA &amp; PASTA</name>
        <description><![CDATA[12301 W MAPLE RD]]></description>
        <styleUrl>#gv_waypoint</styleUrl>
        <Point>
          <altitudeMode>clampToGround</altitudeMode>
          <coordinates>-96.10351893,41.292165437,0</coordinates>
        </Point>
      </Placemark>
      <Placemark>
        <name>BENSON GRIND</name>
        <description><![CDATA[6107 MAPLE ST]]></description>
        <styleUrl>#gv_waypoint</styleUrl>
        <Point>
          <altitudeMode>clampToGround</altitudeMode>
          <coordinates>-96.007502919,41.284944243,0</coordinates>
        </Point>
      </Placemark>
      <Placemark>
        <name>BENSON HIGH SCH CAFETERIA</name>
        <description><![CDATA[5120 MAPLE ST]]></description>
        <styleUrl>#gv_waypoint</styleUrl>
        <Point>
          <altitudeMode>clampToGround</altitudeMode>
          <coordinates>-95.993486985,41.284990072,0</coordinates>
        </Point>
      </Placemark>
      <Placemark>
        <name>BENSON PARK GOLF COURSE</name>
        <description><![CDATA[5333 NO 72 ST]]></description>
        <styleUrl>#gv_waypoint</styleUrl>
        <Point>
          <altitudeMode>clampToGround</altitudeMode>
          <coordinates>-96.023776151,41.304910055,0</coordinates>
        </Point>
      </Placemark>
      <Placemark>
        <name>BERGAN HOSPITAL (ARCHBISHOP)</name>
        <description><![CDATA[7500 MERCY RD]]></description>
        <styleUrl>#gv_waypoint</styleUrl>
        <Point>
          <altitudeMode>clampToGround</altitudeMode>
          <coordinates>-96.03204092,41.237847612,0</coordinates>
        </Point>
      </Placemark>
      <Placemark>
        <name>BERNIE'S PIZZA PARLOR</name>
        <description><![CDATA[5092 SO 136 ST]]></description>
        <styleUrl>#gv_waypoint</styleUrl>
        <Point>
          <altitudeMode>clampToGround</altitudeMode>
          <coordinates>-96.121715479,41.205504079,0</coordinates>
        </Point>
      </Placemark>
      <Placemark>
        <name>BETTER BODIES INC</name>
        <description><![CDATA[4117 SO 120 ST]]></description>
        <styleUrl>#gv_waypoint</styleUrl>
        <Point>
          <altitudeMode>clampToGround</altitudeMode>
          <coordinates>-96.100681834,41.220087823,0</coordinates>
        </Point>
      </Placemark>
      <Placemark>
        <name>B &amp; G TASTY TREATS</name>
        <description><![CDATA[7900 W DODGE RD]]></description>
        <styleUrl>#gv_waypoint</styleUrl>
        <Point>
          <altitudeMode>clampToGround</altitudeMode>
          <coordinates>-96.037430307,41.259924086,0</coordinates>
        </Point>
      </Placemark>
      <Placemark>
        <name>BIAGGI'S RISTORANTE ITALIANO</name>
        <description><![CDATA[13650 CALIFORNIA ST]]></description>
        <styleUrl>#gv_waypoint</styleUrl>
        <Point>
          <altitudeMode>clampToGround</altitudeMode>
          <coordinates>-96.12840662,41.266010547,0</coordinates>
        </Point>
      </Placemark>
      <Placemark>
        <name>BIG BEAR SINCLAIR</name>
        <description><![CDATA[5822 MAPLE ST]]></description>
        <styleUrl>#gv_waypoint</styleUrl>
        <Point>
          <altitudeMode>clampToGround</altitudeMode>
          <coordinates>-96.003091744,41.284981079,0</coordinates>
        </Point>
      </Placemark>
      <Placemark>
        <name>BIG JIM'S PLUS</name>
        <description><![CDATA[3024 AMES AVE]]></description>
        <styleUrl>#gv_waypoint</styleUrl>
        <Point>
          <altitudeMode>clampToGround</altitudeMode>
          <coordinates>-95.957604036,41.299577076,0</coordinates>
        </Point>
      </Placemark>
      <Placemark>
        <name>BIG LOTS</name>
        <description><![CDATA[6516 NO 72 ST]]></description>
        <styleUrl>#gv_waypoint</styleUrl>
        <Point>
          <altitudeMode>clampToGround</altitudeMode>
          <coordinates>-96.0240428,41.317940165,0</coordinates>
        </Point>
      </Placemark>
      <Placemark>
        <name>BIG LOTS</name>
        <description><![CDATA[2502 SO 133 PLZ]]></description>
        <styleUrl>#gv_waypoint</styleUrl>
        <Point>
          <altitudeMode>clampToGround</altitudeMode>
          <coordinates>-96.121559435,41.235788164,0</coordinates>
        </Point>
      </Placemark>
      <Placemark>
        <name>BIG MAMA'S KITCHEN &amp; CATERING</name>
        <description><![CDATA[3223 NO 45 ST]]></description>
        <styleUrl>#gv_waypoint</styleUrl>
        <Point>
          <altitudeMode>clampToGround</altitudeMode>
          <coordinates>-95.980545741,41.287733005,0</coordinates>
        </Point>
      </Placemark>
      <Placemark>
        <name>BIG RED MINI MART</name>
        <description><![CDATA[13525 MILLARD AVE]]></description>
        <styleUrl>#gv_waypoint</styleUrl>
        <Point>
          <altitudeMode>clampToGround</altitudeMode>
          <coordinates>-96.125201689,41.209060314,0</coordinates>
        </Point>
      </Placemark>
      <Placemark>
        <name>BILL'S CONVENIENCE MART</name>
        <description><![CDATA[3928 MAPLE ST]]></description>
        <styleUrl>#gv_waypoint</styleUrl>
        <Point>
          <altitudeMode>clampToGround</altitudeMode>
          <coordinates>-95.972119094,41.284720276,0</coordinates>
        </Point>
      </Placemark>
      <Placemark>
        <name>BIRRICRIA EL CHALAN</name>
        <description><![CDATA[4518 SO 24 ST]]></description>
        <styleUrl>#gv_waypoint</styleUrl>
        <Point>
          <altitudeMode>clampToGround</altitudeMode>
          <coordinates>-95.947045995,41.214150476,0</coordinates>
        </Point>
      </Placemark>
      <Placemark>
        <name>BISHOP'S BAR &amp; GRILL</name>
        <description><![CDATA[1901 HARNEY ST]]></description>
        <styleUrl>#gv_waypoint</styleUrl>
        <Point>
          <altitudeMode>clampToGround</altitudeMode>
          <coordinates>-95.9409244,41.25650768,0</coordinates>
        </Point>
      </Placemark>
      <Placemark>
        <name>BJ'S</name>
        <description><![CDATA[4122 AMES AVE]]></description>
        <styleUrl>#gv_waypoint</styleUrl>
        <Point>
          <altitudeMode>clampToGround</altitudeMode>
          <coordinates>-95.975473565,41.299577076,0</coordinates>
        </Point>
      </Placemark>
      <Placemark>
        <name>BLIMPIE SUBS &amp; SALADS</name>
        <description><![CDATA[13831 R PLZ]]></description>
        <styleUrl>#gv_waypoint</styleUrl>
        <Point>
          <altitudeMode>clampToGround</altitudeMode>
          <coordinates>-96.130701063,41.203890891,0</coordinates>
        </Point>
      </Placemark>
      <Placemark>
        <name>BLIMPIE SUBS &amp; SALADS</name>
        <description><![CDATA[1846 NO 144 ST]]></description>
        <styleUrl>#gv_waypoint</styleUrl>
        <Point>
          <altitudeMode>clampToGround</altitudeMode>
          <coordinates>-96.138887258,41.276104649,0</coordinates>
        </Point>
      </Placemark>
      <Placemark>
        <name>BLIMPIE SUBS &amp; SALADS/SAMURAI SAMS/ASHBYS</name>
        <description><![CDATA[18110 WRIGHT ST]]></description>
        <styleUrl>#gv_waypoint</styleUrl>
        <Point>
          <altitudeMode>clampToGround</altitudeMode>
          <coordinates>-96.197516174,41.233081205,0</coordinates>
        </Point>
      </Placemark>
      <Placemark>
        <name>BLISS OLD MARKET BAKERY @ AROMAS</name>
        <description><![CDATA[1031 JONES ST]]></description>
        <styleUrl>#gv_waypoint</styleUrl>
        <Point>
          <altitudeMode>clampToGround</altitudeMode>
          <coordinates>-95.929627265,41.25329199,0</coordinates>
        </Point>
      </Placemark>
      <Placemark>
        <name>BLOCKBUSTER VIDEO #31042</name>
        <description><![CDATA[4004 NO 132ND ST]]></description>
        <styleUrl>#gv_waypoint</styleUrl>
        <Point>
          <altitudeMode>clampToGround</altitudeMode>
          <coordinates>-96.119708411,41.293674152,0</coordinates>
        </Point>
      </Placemark>
      <Placemark>
        <name>BLOOMFIELD FORUM IND RET COM</name>
        <description><![CDATA[9804 NICHOLAS ST]]></description>
        <styleUrl>#gv_waypoint</styleUrl>
        <Point>
          <altitudeMode>clampToGround</altitudeMode>
          <coordinates>-96.065531673,41.269072073,0</coordinates>
        </Point>
      </Placemark>
      <Placemark>
        <name>BLUE CROSS BLUE SHIELD</name>
        <description><![CDATA[1919 AKSARBEN RD]]></description>
        <styleUrl>#gv_waypoint</styleUrl>
        <Point>
          <altitudeMode>clampToGround</altitudeMode>
          <coordinates>-95.94059,41.26069,0</coordinates>
        </Point>
      </Placemark>
      <Placemark>
        <name>BLUE MARTINI</name>
        <description><![CDATA[10730 PACIFIC ST]]></description>
        <styleUrl>#gv_waypoint</styleUrl>
        <Point>
          <altitudeMode>clampToGround</altitudeMode>
          <coordinates>-96.081125917,41.248810347,0</coordinates>
        </Point>
      </Placemark>
      <Placemark>
        <name>BLUE PLANET</name>
        <description><![CDATA[6307 CENTER ST]]></description>
        <styleUrl>#gv_waypoint</styleUrl>
        <Point>
          <altitudeMode>clampToGround</altitudeMode>
          <coordinates>-96.010624735,41.237837307,0</coordinates>
        </Point>
      </Placemark>
      <Placemark>
        <name>BLUE SUSHI SABE GRILL</name>
        <description><![CDATA[14450 EAGLE RUN DR STE 240]]></description>
        <styleUrl>#gv_waypoint</styleUrl>
        <Point>
          <altitudeMode>clampToGround</altitudeMode>
          <coordinates>-96.140679021,41.287490188,0</coordinates>
        </Point>
      </Placemark>
      <Placemark>
        <name>BLUMFIELD SCHOOL</name>
        <description><![CDATA[10310 MOCKINGBIRD DR.]]></description>
        <styleUrl>#gv_waypoint</styleUrl>
        <Point>
          <altitudeMode>clampToGround</altitudeMode>
          <coordinates>-96.073211883,41.208538707,0</coordinates>
        </Point>
      </Placemark>
      <Placemark>
        <name>BOB MONKEY'S NOODLE ZOO</name>
        <description><![CDATA[4950 DODGE ST]]></description>
        <styleUrl>#gv_waypoint</styleUrl>
        <Point>
          <altitudeMode>clampToGround</altitudeMode>
          <coordinates>-95.989359097,41.259692144,0</coordinates>
        </Point>
      </Placemark>
      <Placemark>
        <name>BOBS GRILL &amp; CAF&#201;</name>
        <description><![CDATA[317 SO 17TH ST]]></description>
        <styleUrl>#gv_waypoint</styleUrl>
        <Point>
          <altitudeMode>clampToGround</altitudeMode>
          <coordinates>-95.938382896,41.257383661,0</coordinates>
        </Point>
      </Placemark>
      <Placemark>
        <name>BOHEMIAN CAFE</name>
        <description><![CDATA[1406-08 SO 13 ST]]></description>
        <styleUrl>#gv_waypoint</styleUrl>
        <Point>
          <altitudeMode>clampToGround</altitudeMode>
          <coordinates>-95.94059,41.26069,0</coordinates>
        </Point>
      </Placemark>
      <Placemark>
        <name>BOILERROOM RESTAURANT (THE)</name>
        <description><![CDATA[1110 JONES ST]]></description>
        <styleUrl>#gv_waypoint</styleUrl>
        <Point>
          <altitudeMode>clampToGround</altitudeMode>
          <coordinates>-95.930723357,41.25338876,0</coordinates>
        </Point>
      </Placemark>
      <Placemark>
        <name>BONEFISH GRILL</name>
        <description><![CDATA[120 REGENCY PRKY STE 100]]></description>
        <styleUrl>#gv_waypoint</styleUrl>
        <Point>
          <altitudeMode>clampToGround</altitudeMode>
          <coordinates>-96.073842513,41.25794365,0</coordinates>
        </Point>
      </Placemark>
      <Placemark>
        <name>BOOKS A MILLION</name>
        <description><![CDATA[12220 K PLZ]]></description>
        <styleUrl>#gv_waypoint</styleUrl>
        <Point>
          <altitudeMode>clampToGround</altitudeMode>
          <coordinates>-96.104829841,41.213458343,0</coordinates>
        </Point>
      </Placemark>
      <Placemark>
        <name>BORDERS BOOKS/ MUSIC/CAFE</name>
        <description><![CDATA[7201 DODGE]]></description>
        <styleUrl>#gv_waypoint</styleUrl>
        <Point>
          <altitudeMode>clampToGround</altitudeMode>
          <coordinates>-96.023890854,41.25954827,0</coordinates>
        </Point>
      </Placemark>
      <Placemark>
        <name>BORDERS BOOKS/MUSIC/CAFE</name>
        <description><![CDATA[13105 BIRCH DR]]></description>
        <styleUrl>#gv_waypoint</styleUrl>
        <Point>
          <altitudeMode>clampToGround</altitudeMode>
          <coordinates>-96.118151005,41.291815927,0</coordinates>
        </Point>
      </Placemark>
      <Placemark>
        <name>BOSTON MARKET</name>
        <description><![CDATA[704 NO 114 ST]]></description>
        <styleUrl>#gv_waypoint</styleUrl>
        <Point>
          <altitudeMode>clampToGround</altitudeMode>
          <coordinates>-96.090982486,41.265537737,0</coordinates>
        </Point>
      </Placemark>
      <Placemark>
        <name>BOXCAR GRILL</name>
        <description><![CDATA[1407 HARNEY ST]]></description>
        <styleUrl>#gv_waypoint</styleUrl>
        <Point>
          <altitudeMode>clampToGround</altitudeMode>
          <coordinates>-95.935013067,41.25655351,0</coordinates>
        </Point>
      </Placemark>
      <Placemark>
        <name>BOYD AND CHARLES BBQ</name>
        <description><![CDATA[202 NO MAIN ST]]></description>
        <styleUrl>#gv_waypoint</styleUrl>
        <Point>
          <altitudeMode>clampToGround</altitudeMode>
          <coordinates>-96.237532412,41.281410206,0</coordinates>
        </Point>
      </Placemark>
      <Placemark>
        <name>BOYS TOWN GREAT HALL</name>
        <description><![CDATA[13747 FLANAGAN BLVD]]></description>
        <styleUrl>#gv_waypoint</styleUrl>
        <Point>
          <altitudeMode>clampToGround</altitudeMode>
          <coordinates>-95.94059,41.26069,0</coordinates>
        </Point>
      </Placemark>
      <Placemark>
        <name>BRANDEIS CAFETERIA</name>
        <description><![CDATA[2400 CASS ST]]></description>
        <styleUrl>#gv_waypoint</styleUrl>
        <Point>
          <altitudeMode>clampToGround</altitudeMode>
          <coordinates>-95.94059,41.26069,0</coordinates>
        </Point>
      </Placemark>
      <Placemark>
        <name>BREAD OVEN (THE)</name>
        <description><![CDATA[5026 UNDERWOOD AVE]]></description>
        <styleUrl>#gv_waypoint</styleUrl>
        <Point>
          <altitudeMode>clampToGround</altitudeMode>
          <coordinates>-95.990914897,41.265136417,0</coordinates>
        </Point>
      </Placemark>
      <Placemark>
        <name>BREW BURGERS</name>
        <description><![CDATA[7515 PACIFIC ST]]></description>
        <styleUrl>#gv_waypoint</styleUrl>
        <Point>
          <altitudeMode>clampToGround</altitudeMode>
          <coordinates>-96.029525774,41.248755524,0</coordinates>
        </Point>
      </Placemark>
      <Placemark>
        <name>BREWSKY'S</name>
        <description><![CDATA[8528 PARK DR]]></description>
        <styleUrl>#gv_waypoint</styleUrl>
        <Point>
          <altitudeMode>clampToGround</altitudeMode>
          <coordinates>-96.044221037,41.201387997,0</coordinates>
        </Point>
      </Placemark>
      <Placemark>
        <name>BREWSKY'S FOOD &amp; SPIRITS</name>
        <description><![CDATA[15350 WEIR ST]]></description>
        <styleUrl>#gv_waypoint</styleUrl>
        <Point>
          <altitudeMode>clampToGround</altitudeMode>
          <coordinates>-96.155389563,41.206338498,0</coordinates>
        </Point>
      </Placemark>
      <Placemark>
        <name>BRIX</name>
        <description><![CDATA[225 NO 170 ST]]></description>
        <styleUrl>#gv_waypoint</styleUrl>
        <Point>
          <altitudeMode>clampToGround</altitudeMode>
          <coordinates>-96.181059183,41.259698682,0</coordinates>
        </Point>
      </Placemark>
      <Placemark>
        <name>BROADMOOR MARKET (THE)</name>
        <description><![CDATA[8722 PACIFIC ST]]></description>
        <styleUrl>#gv_waypoint</styleUrl>
        <Point>
          <altitudeMode>clampToGround</altitudeMode>
          <coordinates>-96.047927107,41.248856177,0</coordinates>
        </Point>
      </Placemark>
      <Placemark>
        <name>BRONCO'S DRIVE IN #0002</name>
        <description><![CDATA[4540 LEAVENWORTH ST]]></description>
        <styleUrl>#gv_waypoint</styleUrl>
        <Point>
          <altitudeMode>clampToGround</altitudeMode>
          <coordinates>-95.982524249,41.252407635,0</coordinates>
        </Point>
      </Placemark>
      <Placemark>
        <name>BRONCO'S DRIVE IN #0005</name>
        <description><![CDATA[1123 SO 120 ST]]></description>
        <styleUrl>#gv_waypoint</styleUrl>
        <Point>
          <altitudeMode>clampToGround</altitudeMode>
          <coordinates>-96.100623218,41.247830086,0</coordinates>
        </Point>
      </Placemark>
      <Placemark>
        <name>BROOK PARK LOUNGE</name>
        <description><![CDATA[3015 NO 90 ST]]></description>
        <styleUrl>#gv_waypoint</styleUrl>
        <Point>
          <altitudeMode>clampToGround</altitudeMode>
          <coordinates>-96.05225768,41.286402008,0</coordinates>
        </Point>
      </Placemark>
      <Placemark>
        <name>BROTHERS LOUNGE 2002</name>
        <description><![CDATA[3810-12 FARNAM ST]]></description>
        <styleUrl>#gv_waypoint</styleUrl>
        <Point>
          <altitudeMode>clampToGround</altitudeMode>
          <coordinates>-95.94059,41.26069,0</coordinates>
        </Point>
      </Placemark>
      <Placemark>
        <name>BROTHERS SEBASTIANS STEAK HOUSE</name>
        <description><![CDATA[1350 SO 119 ST]]></description>
        <styleUrl>#gv_waypoint</styleUrl>
        <Point>
          <altitudeMode>clampToGround</altitudeMode>
          <coordinates>-96.098611155,41.245973155,0</coordinates>
        </Point>
      </Placemark>
      <Placemark>
        <name>BRUEGGER'S BAGEL BAKERY</name>
        <description><![CDATA[228 NO 114 ST]]></description>
        <styleUrl>#gv_waypoint</styleUrl>
        <Point>
          <altitudeMode>clampToGround</altitudeMode>
          <coordinates>-96.091077429,41.259819333,0</coordinates>
        </Point>
      </Placemark>
      <Placemark>
        <name>BRUEGGERS BAGEL BAKERY</name>
        <description><![CDATA[12989 W CENTER RD]]></description>
        <styleUrl>#gv_waypoint</styleUrl>
        <Point>
          <altitudeMode>clampToGround</altitudeMode>
          <coordinates>-96.116796158,41.23397362,0</coordinates>
        </Point>
      </Placemark>
      <Placemark>
        <name>BUCHANAN'S W DODGE AMOCO</name>
        <description><![CDATA[7911 W DODGE RD]]></description>
        <styleUrl>#gv_waypoint</styleUrl>
        <Point>
          <altitudeMode>clampToGround</altitudeMode>
          <coordinates>-96.038444093,41.260096839,0</coordinates>
        </Point>
      </Placemark>
      <Placemark>
        <name>BUCKS</name>
        <description><![CDATA[4420 L ST]]></description>
        <styleUrl>#gv_waypoint</styleUrl>
        <Point>
          <altitudeMode>clampToGround</altitudeMode>
          <coordinates>-95.980842517,41.212567669,0</coordinates>
        </Point>
      </Placemark>
      <Placemark>
        <name>BUCKY'S AMOCO</name>
        <description><![CDATA[2223 SO 24 ST]]></description>
        <styleUrl>#gv_waypoint</styleUrl>
        <Point>
          <altitudeMode>clampToGround</altitudeMode>
          <coordinates>-95.947028009,41.238800893,0</coordinates>
        </Point>
      </Placemark>
      <Placemark>
        <name>BUCKY'S EXPRESS</name>
        <description><![CDATA[4805 SO 108 ST]]></description>
        <styleUrl>#gv_waypoint</styleUrl>
        <Point>
          <altitudeMode>clampToGround</altitudeMode>
          <coordinates>-96.081431686,41.211020836,0</coordinates>
        </Point>
      </Placemark>
      <Placemark>
        <name>BUCKY'S EXPRESS</name>
        <description><![CDATA[3052 SO 84 ST]]></description>
        <styleUrl>#gv_waypoint</styleUrl>
        <Point>
          <altitudeMode>clampToGround</altitudeMode>
          <coordinates>-96.043120568,41.22946593,0</coordinates>
        </Point>
      </Placemark>
      <Placemark>
        <name>BUCKY'S EXPRESS</name>
        <description><![CDATA[10202 MAPLE ST]]></description>
        <styleUrl>#gv_waypoint</styleUrl>
        <Point>
          <altitudeMode>clampToGround</altitudeMode>
          <coordinates>-96.070818185,41.285247816,0</coordinates>
        </Point>
      </Placemark>
      <Placemark>
        <name>BUCKY'S EXPRESS #20</name>
        <description><![CDATA[2510 SO 132 ST]]></description>
        <styleUrl>#gv_waypoint</styleUrl>
        <Point>
          <altitudeMode>clampToGround</altitudeMode>
          <coordinates>-96.11956294,41.235374476,0</coordinates>
        </Point>
      </Placemark>
      <Placemark>
        <name>BUCKY'S EXPRESS #40</name>
        <description><![CDATA[107 SO 40 ST]]></description>
        <styleUrl>#gv_waypoint</styleUrl>
        <Point>
          <altitudeMode>clampToGround</altitudeMode>
          <coordinates>-95.973324185,41.259440334,0</coordinates>
        </Point>
      </Placemark>
      <Placemark>
        <name>BUCKY'S EXPRESS #61</name>
        <description><![CDATA[2635 SO 160 ST]]></description>
        <styleUrl>#gv_waypoint</styleUrl>
        <Point>
          <altitudeMode>clampToGround</altitudeMode>
          <coordinates>-96.165059642,41.234915822,0</coordinates>
        </Point>
      </Placemark>
      <Placemark>
        <name>BUFFALO COMPANY</name>
        <description><![CDATA[4725 SO 96 ST]]></description>
        <styleUrl>#gv_waypoint</styleUrl>
        <Point>
          <altitudeMode>clampToGround</altitudeMode>
          <coordinates>-96.062111522,41.211380162,0</coordinates>
        </Point>
      </Placemark>
      <Placemark>
        <name>BUFFALO WILD WINGS</name>
        <description><![CDATA[4287 SO 144 ST]]></description>
        <styleUrl>#gv_waypoint</styleUrl>
        <Point>
          <altitudeMode>clampToGround</altitudeMode>
          <coordinates>-96.138572167,41.215502778,0</coordinates>
        </Point>
      </Placemark>
      <Placemark>
        <name>BUFFALO WILD WINGS</name>
        <description><![CDATA[4875 L ST]]></description>
        <styleUrl>#gv_waypoint</styleUrl>
        <Point>
          <altitudeMode>clampToGround</altitudeMode>
          <coordinates>-95.988021471,41.212473377,0</coordinates>
        </Point>
      </Placemark>
      <Placemark>
        <name>BUFFALO WILD WINGS</name>
        <description><![CDATA[205 NO 76 ST]]></description>
        <styleUrl>#gv_waypoint</styleUrl>
        <Point>
          <altitudeMode>clampToGround</altitudeMode>
          <coordinates>-96.031391238,41.260724302,0</coordinates>
        </Point>
      </Placemark>
      <Placemark>
        <name>BUFFALO WILD WINGS</name>
        <description><![CDATA[14615 W MAPLE RD]]></description>
        <styleUrl>#gv_waypoint</styleUrl>
        <Point>
          <altitudeMode>clampToGround</altitudeMode>
          <coordinates>-96.14215391,41.292085723,0</coordinates>
        </Point>
      </Placemark>
      <Placemark>
        <name>BUFFALO WINGS &amp; RINGS</name>
        <description><![CDATA[12240 L ST]]></description>
        <styleUrl>#gv_waypoint</styleUrl>
        <Point>
          <altitudeMode>clampToGround</altitudeMode>
          <coordinates>-96.104877011,41.212630622,0</coordinates>
        </Point>
      </Placemark>
      <Placemark>
        <name>BURGER KING</name>
        <description><![CDATA[4900 L ST]]></description>
        <styleUrl>#gv_waypoint</styleUrl>
        <Point>
          <altitudeMode>clampToGround</altitudeMode>
          <coordinates>-95.988693599,41.212522703,0</coordinates>
        </Point>
      </Placemark>
      <Placemark>
        <name>BURGER KING</name>
        <description><![CDATA[5222 SO 138 ST]]></description>
        <styleUrl>#gv_waypoint</styleUrl>
        <Point>
          <altitudeMode>clampToGround</altitudeMode>
          <coordinates>-96.129185686,41.204185988,0</coordinates>
        </Point>
      </Placemark>
      <Placemark>
        <name>BURGER KING</name>
        <description><![CDATA[7640 DODGE ST]]></description>
        <styleUrl>#gv_waypoint</styleUrl>
        <Point>
          <altitudeMode>clampToGround</altitudeMode>
          <coordinates>-96.032400649,41.259692144,0</coordinates>
        </Point>
      </Placemark>
      <Placemark>
        <name>BURGER KING</name>
        <description><![CDATA[4460 DODGE ST]]></description>
        <styleUrl>#gv_waypoint</styleUrl>
        <Point>
          <altitudeMode>clampToGround</altitudeMode>
          <coordinates>-95.981611977,41.25975596,0</coordinates>
        </Point>
      </Placemark>
      <Placemark>
        <name>BURGER KING</name>
        <description><![CDATA[2912 DODGE ST]]></description>
        <styleUrl>#gv_waypoint</styleUrl>
        <Point>
          <altitudeMode>clampToGround</altitudeMode>
          <coordinates>-95.955571568,41.259728117,0</coordinates>
        </Point>
      </Placemark>
      <Placemark>
        <name>BURGER KING</name>
        <description><![CDATA[10000 CALIFORNIA ST]]></description>
        <styleUrl>#gv_waypoint</styleUrl>
        <Point>
          <altitudeMode>clampToGround</altitudeMode>
          <coordinates>-96.067011028,41.264523029,0</coordinates>
        </Point>
      </Placemark>
      <Placemark>
        <name>BURGER KING</name>
        <description><![CDATA[1902 NO 72 ST]]></description>
        <styleUrl>#gv_waypoint</styleUrl>
        <Point>
          <altitudeMode>clampToGround</altitudeMode>
          <coordinates>-96.023893063,41.276779262,0</coordinates>
        </Point>
      </Placemark>
      <Placemark>
        <name>BURGER KING</name>
        <description><![CDATA[3001 SO 144 ST]]></description>
        <styleUrl>#gv_waypoint</styleUrl>
        <Point>
          <altitudeMode>clampToGround</altitudeMode>
          <coordinates>-96.138380898,41.229154417,0</coordinates>
        </Point>
      </Placemark>
      <Placemark>
        <name>BURGER KING</name>
        <description><![CDATA[4404 NO 60 ST]]></description>
        <styleUrl>#gv_waypoint</styleUrl>
        <Point>
          <altitudeMode>clampToGround</altitudeMode>
          <coordinates>-96.004701531,41.29847091,0</coordinates>
        </Point>
      </Placemark>
      <Placemark>
        <name>BURGER KING</name>
        <description><![CDATA[695 NO 204 AVE]]></description>
        <styleUrl>#gv_waypoint</styleUrl>
        <Point>
          <altitudeMode>clampToGround</altitudeMode>
          <coordinates>-95.94059,41.26069,0</coordinates>
        </Point>
      </Placemark>
      <Placemark>
        <name>BURGER KING</name>
        <description><![CDATA[13750 W MAPLE RD]]></description>
        <styleUrl>#gv_waypoint</styleUrl>
        <Point>
          <altitudeMode>clampToGround</altitudeMode>
          <coordinates>-96.127360062,41.292166662,0</coordinates>
        </Point>
      </Placemark>
      <Placemark>
        <name>BURGER KING</name>
        <description><![CDATA[2615 SO 177 ST]]></description>
        <styleUrl>#gv_waypoint</styleUrl>
        <Point>
          <altitudeMode>clampToGround</altitudeMode>
          <coordinates>-96.191344118,41.235621681,0</coordinates>
        </Point>
      </Placemark>
      <Placemark>
        <name>BURGER KING</name>
        <description><![CDATA[2319 SO 13 ST]]></description>
        <styleUrl>#gv_waypoint</styleUrl>
        <Point>
          <altitudeMode>clampToGround</altitudeMode>
          <coordinates>-95.933340328,41.237047215,0</coordinates>
        </Point>
      </Placemark>
      <Placemark>
        <name>BURGER KING</name>
        <description><![CDATA[4313 SO 24 ST]]></description>
        <styleUrl>#gv_waypoint</styleUrl>
        <Point>
          <altitudeMode>clampToGround</altitudeMode>
          <coordinates>-95.947037002,41.217199178,0</coordinates>
        </Point>
      </Placemark>
      <Placemark>
        <name>BURGER KING</name>
        <description><![CDATA[7307 JONES]]></description>
        <styleUrl>#gv_waypoint</styleUrl>
        <Point>
          <altitudeMode>clampToGround</altitudeMode>
          <coordinates>-96.024481211,41.254259375,0</coordinates>
        </Point>
      </Placemark>
      <Placemark>
        <name>BURGER KING</name>
        <description><![CDATA[4202 D ST]]></description>
        <styleUrl>#gv_waypoint</styleUrl>
        <Point>
          <altitudeMode>clampToGround</altitudeMode>
          <coordinates>-95.975977185,41.221497937,0</coordinates>
        </Point>
      </Placemark>
      <Placemark>
        <name>BURGER KING</name>
        <description><![CDATA[4502 NO 30 ST]]></description>
        <styleUrl>#gv_waypoint</styleUrl>
        <Point>
          <altitudeMode>clampToGround</altitudeMode>
          <coordinates>-95.956533843,41.300242574,0</coordinates>
        </Point>
      </Placemark>
      <Placemark>
        <name>BURGER KING</name>
        <description><![CDATA[7205 ONTARIO ST]]></description>
        <styleUrl>#gv_waypoint</styleUrl>
        <Point>
          <altitudeMode>clampToGround</altitudeMode>
          <coordinates>-96.024900303,41.22686689,0</coordinates>
        </Point>
      </Placemark>
      <Placemark>
        <name>BURGER KING</name>
        <description><![CDATA[7606 NO 30 ST]]></description>
        <styleUrl>#gv_waypoint</styleUrl>
        <Point>
          <altitudeMode>clampToGround</altitudeMode>
          <coordinates>-95.958381868,41.328841497,0</coordinates>
        </Point>
      </Placemark>
      <Placemark>
        <name>BURGER KING</name>
        <description><![CDATA[11325 W DODGE RD]]></description>
        <styleUrl>#gv_waypoint</styleUrl>
        <Point>
          <altitudeMode>clampToGround</altitudeMode>
          <coordinates>-96.089966252,41.262956683,0</coordinates>
        </Point>
      </Placemark>
      <Placemark>
        <name>BURGER KING</name>
        <description><![CDATA[330 NO 168 CIR]]></description>
        <styleUrl>#gv_waypoint</styleUrl>
        <Point>
          <altitudeMode>clampToGround</altitudeMode>
          <coordinates>-96.177122919,41.261048458,0</coordinates>
        </Point>
      </Placemark>
      <Placemark>
        <name>BURGER KING</name>
        <description><![CDATA[11940 W CENTER RD]]></description>
        <styleUrl>#gv_waypoint</styleUrl>
        <Point>
          <altitudeMode>clampToGround</altitudeMode>
          <coordinates>-96.100011679,41.23452012,0</coordinates>
        </Point>
      </Placemark>
      <Placemark>
        <name>BURGER KING</name>
        <description><![CDATA[5049 SO 108 ST]]></description>
        <styleUrl>#gv_waypoint</styleUrl>
        <Point>
          <altitudeMode>clampToGround</altitudeMode>
          <coordinates>-96.081422693,41.208178978,0</coordinates>
        </Point>
      </Placemark>
      <Placemark>
        <name>BURGER KING</name>
        <description><![CDATA[10706 EMMET]]></description>
        <styleUrl>#gv_waypoint</styleUrl>
        <Point>
          <altitudeMode>clampToGround</altitudeMode>
          <coordinates>-96.080317469,41.28969682,0</coordinates>
        </Point>
      </Placemark>
      <Placemark>
        <name>BURGER KING</name>
        <description><![CDATA[3222 NO 90 ST]]></description>
        <styleUrl>#gv_waypoint</styleUrl>
        <Point>
          <altitudeMode>clampToGround</altitudeMode>
          <coordinates>-96.0527613,41.288704272,0</coordinates>
        </Point>
      </Placemark>
      <Placemark>
        <name>BURGER KING</name>
        <description><![CDATA[5155 CENTER ST]]></description>
        <styleUrl>#gv_waypoint</styleUrl>
        <Point>
          <altitudeMode>clampToGround</altitudeMode>
          <coordinates>-95.994341341,41.241067185,0</coordinates>
        </Point>
      </Placemark>
      <Placemark>
        <name>BURGER KING</name>
        <description><![CDATA[6602 NO 99 ST]]></description>
        <styleUrl>#gv_waypoint</styleUrl>
        <Point>
          <altitudeMode>clampToGround</altitudeMode>
          <coordinates>-96.065666571,41.31832794,0</coordinates>
        </Point>
      </Placemark>
      <Placemark>
        <name>BURGER KING</name>
        <description><![CDATA[6406 NO 72 ST]]></description>
        <styleUrl>#gv_waypoint</styleUrl>
        <Point>
          <altitudeMode>clampToGround</altitudeMode>
          <coordinates>-96.023974002,41.317248754,0</coordinates>
        </Point>
      </Placemark>
      <Placemark>
        <name>BURGER KING</name>
        <description><![CDATA[14404 W CENTER RD]]></description>
        <styleUrl>#gv_waypoint</styleUrl>
        <Point>
          <altitudeMode>clampToGround</altitudeMode>
          <coordinates>-96.139437957,41.233899588,0</coordinates>
        </Point>
      </Placemark>
      <Placemark>
        <name>BURKE'S OF BALLYSHANNON</name>
        <description><![CDATA[6117 MAPLE ST]]></description>
        <styleUrl>#gv_waypoint</styleUrl>
        <Point>
          <altitudeMode>clampToGround</altitudeMode>
          <coordinates>-96.00793909,41.284999066,0</coordinates>
        </Point>
      </Placemark>
      <Placemark>
        <name>CADDY SHACK (THE)</name>
        <description><![CDATA[2076 NO 117 AVE]]></description>
        <styleUrl>#gv_waypoint</styleUrl>
        <Point>
          <altitudeMode>clampToGround</altitudeMode>
          <coordinates>-96.098303649,41.278380876,0</coordinates>
        </Point>
      </Placemark>
      <Placemark>
        <name>CAF&#201; ANNIE'S</name>
        <description><![CDATA[351 NO 78 ST]]></description>
        <styleUrl>#gv_waypoint</styleUrl>
        <Point>
          <altitudeMode>clampToGround</altitudeMode>
          <coordinates>-96.037057645,41.262415303,0</coordinates>
        </Point>
      </Placemark>
      <Placemark>
        <name>CAFFEINE DREAMS COFFEE &amp; TEA</name>
        <description><![CDATA[4524 FARNAM ST]]></description>
        <styleUrl>#gv_waypoint</styleUrl>
        <Point>
          <altitudeMode>clampToGround</altitudeMode>
          <coordinates>-95.982578209,41.257776588,0</coordinates>
        </Point>
      </Placemark>
      <Placemark>
        <name>CAJUN KITCHEN</name>
        <description><![CDATA[2819 NO 30 ST]]></description>
        <styleUrl>#gv_waypoint</styleUrl>
        <Point>
          <altitudeMode>clampToGround</altitudeMode>
          <coordinates>-95.956578809,41.284810208,0</coordinates>
        </Point>
      </Placemark>
      <Placemark>
        <name>CAKERY (THE)</name>
        <description><![CDATA[10817 PRAIRIE BROOK]]></description>
        <styleUrl>#gv_waypoint</styleUrl>
        <Point>
          <altitudeMode>clampToGround</altitudeMode>
          <coordinates>-95.94059,41.26069,0</coordinates>
        </Point>
      </Placemark>
      <Placemark>
        <name>CAMELOT FRIENDSHIP CENTER</name>
        <description><![CDATA[9270 CADY AVE]]></description>
        <styleUrl>#gv_waypoint</styleUrl>
        <Point>
          <altitudeMode>clampToGround</altitudeMode>
          <coordinates>-96.056691337,41.280205679,0</coordinates>
        </Point>
      </Placemark>
      <Placemark>
        <name>CAMP FIRE USA</name>
        <description><![CDATA[2566 ST MARY'S AVE]]></description>
        <styleUrl>#gv_waypoint</styleUrl>
        <Point>
          <altitudeMode>clampToGround</altitudeMode>
          <coordinates>-95.949591077,41.253738632,0</coordinates>
        </Point>
      </Placemark>
      <Placemark>
        <name>CANDLELIGHT LOUNGE</name>
        <description><![CDATA[5031 GROVER ST]]></description>
        <styleUrl>#gv_waypoint</styleUrl>
        <Point>
          <altitudeMode>clampToGround</altitudeMode>
          <coordinates>-95.991312979,41.226914882,0</coordinates>
        </Point>
      </Placemark>
      <Placemark>
        <name>CANDYOPOLIS</name>
        <description><![CDATA[3001 SO 144 ST STE B11]]></description>
        <styleUrl>#gv_waypoint</styleUrl>
        <Point>
          <altitudeMode>clampToGround</altitudeMode>
          <coordinates>-96.138380898,41.229154417,0</coordinates>
        </Point>
      </Placemark>
      <Placemark>
        <name>CANDY WRAPPERS</name>
        <description><![CDATA[2718 SO 123 CT]]></description>
        <styleUrl>#gv_waypoint</styleUrl>
        <Point>
          <altitudeMode>clampToGround</altitudeMode>
          <coordinates>-96.105750307,41.2334052,0</coordinates>
        </Point>
      </Placemark>
      <Placemark>
        <name>CARIBBEAN DELIGHTS</name>
        <description><![CDATA[2304 NO 72 ST]]></description>
        <styleUrl>#gv_waypoint</styleUrl>
        <Point>
          <altitudeMode>clampToGround</altitudeMode>
          <coordinates>-96.023966455,41.279665388,0</coordinates>
        </Point>
      </Placemark>
      <Placemark>
        <name>CARLOS O'KELLY'S</name>
        <description><![CDATA[12930 W MAPLE ST]]></description>
        <styleUrl>#gv_waypoint</styleUrl>
        <Point>
          <altitudeMode>clampToGround</altitudeMode>
          <coordinates>-96.115657205,41.29237965,0</coordinates>
        </Point>
      </Placemark>
      <Placemark>
        <name>CARNICERIA LA HIDALGUENSE</name>
        <description><![CDATA[3302 Q ST]]></description>
        <styleUrl>#gv_waypoint</styleUrl>
        <Point>
          <altitudeMode>clampToGround</altitudeMode>
          <coordinates>-95.962972988,41.205454032,0</coordinates>
        </Point>
      </Placemark>
      <Placemark>
        <name>CARRABBA'S ITALIAN GRILL</name>
        <description><![CDATA[14520 W MAPLE RD]]></description>
        <styleUrl>#gv_waypoint</styleUrl>
        <Point>
          <altitudeMode>clampToGround</altitudeMode>
          <coordinates>-96.14075996,41.292265588,0</coordinates>
        </Point>
      </Placemark>
      <Placemark>
        <name>CASA BELLA PIZZA</name>
        <description><![CDATA[302 SO 16 ST]]></description>
        <styleUrl>#gv_waypoint</styleUrl>
        <Point>
          <altitudeMode>clampToGround</altitudeMode>
          <coordinates>-95.937253359,41.257519762,0</coordinates>
        </Point>
      </Placemark>
      <Placemark>
        <name>CASA DE ORO FOODS</name>
        <description><![CDATA[4433 SO 94 ST]]></description>
        <styleUrl>#gv_waypoint</styleUrl>
        <Point>
          <altitudeMode>clampToGround</altitudeMode>
          <coordinates>-96.058732798,41.216066032,0</coordinates>
        </Point>
      </Placemark>
      <Placemark>
        <name>CATEGORY ONE GIFT &amp; GOURMET</name>
        <description><![CDATA[10922 PRAIRIE BROOK]]></description>
        <styleUrl>#gv_waypoint</styleUrl>
        <Point>
          <altitudeMode>clampToGround</altitudeMode>
          <coordinates>-95.94059,41.26069,0</coordinates>
        </Point>
      </Placemark>
      <Placemark>
        <name>CATERING CREATIONS</name>
        <description><![CDATA[7515 PACIFIC ST]]></description>
        <styleUrl>#gv_waypoint</styleUrl>
        <Point>
          <altitudeMode>clampToGround</altitudeMode>
          <coordinates>-96.029525774,41.248755524,0</coordinates>
        </Point>
      </Placemark>
      <Placemark>
        <name>CATHOLIC SOKOL HALL</name>
        <description><![CDATA[4206 SO 13 ST]]></description>
        <styleUrl>#gv_waypoint</styleUrl>
        <Point>
          <altitudeMode>clampToGround</altitudeMode>
          <coordinates>-95.933331334,41.217756758,0</coordinates>
        </Point>
      </Placemark>
      <Placemark>
        <name>CELEBRATE CATERING</name>
        <description><![CDATA[19988 CYPRESS AVE]]></description>
        <styleUrl>#gv_waypoint</styleUrl>
        <Point>
          <altitudeMode>clampToGround</altitudeMode>
          <coordinates>-95.94059,41.26069,0</coordinates>
        </Point>
      </Placemark>
      <Placemark>
        <name>CENTRAL PARK SCH CAFETERIA</name>
        <description><![CDATA[4904 NO 42 ST]]></description>
        <styleUrl>#gv_waypoint</styleUrl>
        <Point>
          <altitudeMode>clampToGround</altitudeMode>
          <coordinates>-95.975779334,41.303642011,0</coordinates>
        </Point>
      </Placemark>
      <Placemark>
        <name>CHARLESTON'S RESTAURANT</name>
        <description><![CDATA[13851 FIRST NATL BK PKWY]]></description>
        <styleUrl>#gv_waypoint</styleUrl>
        <Point>
          <altitudeMode>clampToGround</altitudeMode>
          <coordinates>-95.94059,41.26069,0</coordinates>
        </Point>
      </Placemark>
      <Placemark>
        <name>CHARLY'S SUBS</name>
        <description><![CDATA[10000 CALIFORNIA ST]]></description>
        <styleUrl>#gv_waypoint</styleUrl>
        <Point>
          <altitudeMode>clampToGround</altitudeMode>
          <coordinates>-96.067011028,41.264523029,0</coordinates>
        </Point>
      </Placemark>
      <Placemark>
        <name>CHARLY'S SUBS</name>
        <description><![CDATA[3001 SO 144 ST]]></description>
        <styleUrl>#gv_waypoint</styleUrl>
        <Point>
          <altitudeMode>clampToGround</altitudeMode>
          <coordinates>-96.138380898,41.229154417,0</coordinates>
        </Point>
      </Placemark>
      <Placemark>
        <name>CHATTY SQUIRREL CAF&#201; (THE)</name>
        <description><![CDATA[12323 W CENTER RD]]></description>
        <styleUrl>#gv_waypoint</styleUrl>
        <Point>
          <altitudeMode>clampToGround</altitudeMode>
          <coordinates>-96.106100089,41.23398952,0</coordinates>
        </Point>
      </Placemark>
      <Placemark>
        <name>CHEESEBURGER IN PARADISE</name>
        <description><![CDATA[17304 DAVENPORT]]></description>
        <styleUrl>#gv_waypoint</styleUrl>
        <Point>
          <altitudeMode>clampToGround</altitudeMode>
          <coordinates>-96.184955656,41.261020431,0</coordinates>
        </Point>
      </Placemark>
      <Placemark>
        <name>CHEF HATTAM INC</name>
        <description><![CDATA[4963 CENTER ST]]></description>
        <styleUrl>#gv_waypoint</styleUrl>
        <Point>
          <altitudeMode>clampToGround</altitudeMode>
          <coordinates>-95.989266341,41.241497996,0</coordinates>
        </Point>
      </Placemark>
      <Placemark>
        <name>CHEF MIKE'S CATERING</name>
        <description><![CDATA[2416 LAKE ST]]></description>
        <styleUrl>#gv_waypoint</styleUrl>
        <Point>
          <altitudeMode>clampToGround</altitudeMode>
          <coordinates>-95.947305206,41.281573512,0</coordinates>
        </Point>
      </Placemark>
      <Placemark>
        <name>CHERRY BEAN COFFEE &amp; DELI</name>
        <description><![CDATA[7110 NO 102 CIR]]></description>
        <styleUrl>#gv_waypoint</styleUrl>
        <Point>
          <altitudeMode>clampToGround</altitudeMode>
          <coordinates>-96.072402493,41.322698645,0</coordinates>
        </Point>
      </Placemark>
      <Placemark>
        <name>CHICAGO DAWG HOUSE</name>
        <description><![CDATA[3113 NO 108 ST]]></description>
        <styleUrl>#gv_waypoint</styleUrl>
        <Point>
          <altitudeMode>clampToGround</altitudeMode>
          <coordinates>-96.081378947,41.286803316,0</coordinates>
        </Point>
      </Placemark>
      <Placemark>
        <name>CHILDREN'S HOSPITAL</name>
        <description><![CDATA[8200 DODGE ST]]></description>
        <styleUrl>#gv_waypoint</styleUrl>
        <Point>
          <altitudeMode>clampToGround</altitudeMode>
          <coordinates>-96.040197178,41.259717182,0</coordinates>
        </Point>
      </Placemark>
      <Placemark>
        <name>CHILI'S SW GRILL &amp; BAR</name>
        <description><![CDATA[3202 SO 143 PLZ]]></description>
        <styleUrl>#gv_waypoint</styleUrl>
        <Point>
          <altitudeMode>clampToGround</altitudeMode>
          <coordinates>-96.137612333,41.229600829,0</coordinates>
        </Point>
      </Placemark>
      <Placemark>
        <name>CHINA 1</name>
        <description><![CDATA[3125 NO 108 ST]]></description>
        <styleUrl>#gv_waypoint</styleUrl>
        <Point>
          <altitudeMode>clampToGround</altitudeMode>
          <coordinates>-96.081380997,41.286882217,0</coordinates>
        </Point>
      </Placemark>
      <Placemark>
        <name>CHINA BUFFET</name>
        <description><![CDATA[737 NO 114 ST]]></description>
        <styleUrl>#gv_waypoint</styleUrl>
        <Point>
          <altitudeMode>clampToGround</altitudeMode>
          <coordinates>-96.091229296,41.267110046,0</coordinates>
        </Point>
      </Placemark>
      <Placemark>
        <name>CHINA KITCHEN</name>
        <description><![CDATA[17676 WELCH PLZ]]></description>
        <styleUrl>#gv_waypoint</styleUrl>
        <Point>
          <altitudeMode>clampToGround</altitudeMode>
          <coordinates>-96.191557773,41.206894629,0</coordinates>
        </Point>
      </Placemark>
      <Placemark>
        <name>CHIPOTLE</name>
        <description><![CDATA[201 SO 72 ST]]></description>
        <styleUrl>#gv_waypoint</styleUrl>
        <Point>
          <altitudeMode>clampToGround</altitudeMode>
          <coordinates>-96.023893063,41.258271215,0</coordinates>
        </Point>
      </Placemark>
      <Placemark>
        <name>CHIPOTLE</name>
        <description><![CDATA[2717 SO 177 ST]]></description>
        <styleUrl>#gv_waypoint</styleUrl>
        <Point>
          <altitudeMode>clampToGround</altitudeMode>
          <coordinates>-96.192408025,41.233243083,0</coordinates>
        </Point>
      </Placemark>
      <Placemark>
        <name>CHIPOTLE</name>
        <description><![CDATA[13203 W CENTER RD]]></description>
        <styleUrl>#gv_waypoint</styleUrl>
        <Point>
          <altitudeMode>clampToGround</altitudeMode>
          <coordinates>-96.119613141,41.2339876,0</coordinates>
        </Point>
      </Placemark>
      <Placemark>
        <name>CHIPOTLE</name>
        <description><![CDATA[3605 NO 147 ST]]></description>
        <styleUrl>#gv_waypoint</styleUrl>
        <Point>
          <altitudeMode>clampToGround</altitudeMode>
          <coordinates>-96.143601818,41.291060496,0</coordinates>
        </Point>
      </Placemark>
      <Placemark>
        <name>CHI-TOWN CHICKEN</name>
        <description><![CDATA[2229 LAKE ST]]></description>
        <styleUrl>#gv_waypoint</styleUrl>
        <Point>
          <altitudeMode>clampToGround</altitudeMode>
          <coordinates>-95.94641647,41.281518689,0</coordinates>
        </Point>
      </Placemark>
      <Placemark>
        <name>CHRIST THE KING SCHOOL</name>
        <description><![CDATA[831 SO 88 ST]]></description>
        <styleUrl>#gv_waypoint</styleUrl>
        <Point>
          <altitudeMode>clampToGround</altitudeMode>
          <coordinates>-96.049902944,41.25094773,0</coordinates>
        </Point>
      </Placemark>
      <Placemark>
        <name>CHUBB FOODS</name>
        <description><![CDATA[2905 NO 16 ST]]></description>
        <styleUrl>#gv_waypoint</styleUrl>
        <Point>
          <altitudeMode>clampToGround</altitudeMode>
          <coordinates>-95.937414256,41.285259869,0</coordinates>
        </Point>
      </Placemark>
      <Placemark>
        <name>CICI'S PIZZA</name>
        <description><![CDATA[3205 OAKVIEW DR]]></description>
        <styleUrl>#gv_waypoint</styleUrl>
        <Point>
          <altitudeMode>clampToGround</altitudeMode>
          <coordinates>-96.132093928,41.228415511,0</coordinates>
        </Point>
      </Placemark>
      <Placemark>
        <name>CIGARROS</name>
        <description><![CDATA[13110 BIRCH DR STE 108]]></description>
        <styleUrl>#gv_waypoint</styleUrl>
        <Point>
          <altitudeMode>clampToGround</altitudeMode>
          <coordinates>-96.118438788,41.290439964,0</coordinates>
        </Point>
      </Placemark>
      <Placemark>
        <name>CIRINO'S PARK AVE</name>
        <description><![CDATA[1107 PARK AVE]]></description>
        <styleUrl>#gv_waypoint</styleUrl>
        <Point>
          <altitudeMode>clampToGround</altitudeMode>
          <coordinates>-95.955751433,41.248486591,0</coordinates>
        </Point>
      </Placemark>
      <Placemark>
        <name>CITY BREW COFFEE</name>
        <description><![CDATA[540 NO SADDLE CREEK RD]]></description>
        <styleUrl>#gv_waypoint</styleUrl>
        <Point>
          <altitudeMode>clampToGround</altitudeMode>
          <coordinates>-95.980898694,41.264260579,0</coordinates>
        </Point>
      </Placemark>
      <Placemark>
        <name>CLANCY'S PUB</name>
        <description><![CDATA[2905 SO 168 ST]]></description>
        <styleUrl>#gv_waypoint</styleUrl>
        <Point>
          <altitudeMode>clampToGround</altitudeMode>
          <coordinates>-96.176768758,41.231605646,0</coordinates>
        </Point>
      </Placemark>
      <Placemark>
        <name>CLARKSON COLLEGE BOOKSTORE</name>
        <description><![CDATA[101 SO 42 ST]]></description>
        <styleUrl>#gv_waypoint</styleUrl>
        <Point>
          <altitudeMode>clampToGround</altitudeMode>
          <coordinates>-95.975770341,41.258711883,0</coordinates>
        </Point>
      </Placemark>
      <Placemark>
        <name>CLUBHOUSE LOUNGE</name>
        <description><![CDATA[3936 NO 90 ST]]></description>
        <styleUrl>#gv_waypoint</styleUrl>
        <Point>
          <altitudeMode>clampToGround</altitudeMode>
          <coordinates>-96.052707341,41.295026506,0</coordinates>
        </Point>
      </Placemark>
      <Placemark>
        <name>CLUB SEVILLE</name>
        <description><![CDATA[3618 NO 30 ST]]></description>
        <styleUrl>#gv_waypoint</styleUrl>
        <Point>
          <altitudeMode>clampToGround</altitudeMode>
          <coordinates>-95.956569816,41.291941832,0</coordinates>
        </Point>
      </Placemark>
      <Placemark>
        <name>CLUB TURF</name>
        <description><![CDATA[2404 SO 60 ST]]></description>
        <styleUrl>#gv_waypoint</styleUrl>
        <Point>
          <altitudeMode>clampToGround</altitudeMode>
          <coordinates>-96.004827436,41.237083188,0</coordinates>
        </Point>
      </Placemark>
      <Placemark>
        <name>COCA COLA BTLG CO OF OMAHA</name>
        <description><![CDATA[5415 DAYTON ST]]></description>
        <styleUrl>#gv_waypoint</styleUrl>
        <Point>
          <altitudeMode>clampToGround</altitudeMode>
          <coordinates>-96.000906392,41.217450988,0</coordinates>
        </Point>
      </Placemark>
      <Placemark>
        <name>COFFEE HOUSE</name>
        <description><![CDATA[2208 CALIFORNIA ST]]></description>
        <styleUrl>#gv_waypoint</styleUrl>
        <Point>
          <altitudeMode>clampToGround</altitudeMode>
          <coordinates>-95.94538225,41.2647913,0</coordinates>
        </Point>
      </Placemark>
      <Placemark>
        <name>COHEN &amp; KELLY'S LOUNGE</name>
        <description><![CDATA[13075 W CENTER RD]]></description>
        <styleUrl>#gv_waypoint</styleUrl>
        <Point>
          <altitudeMode>clampToGround</altitudeMode>
          <coordinates>-96.11839415,41.233988657,0</coordinates>
        </Point>
      </Placemark>
      <Placemark>
        <name>COLD STONE CREAMERY</name>
        <description><![CDATA[17304 DAVENPORT]]></description>
        <styleUrl>#gv_waypoint</styleUrl>
        <Point>
          <altitudeMode>clampToGround</altitudeMode>
          <coordinates>-96.184955656,41.261020431,0</coordinates>
        </Point>
      </Placemark>
      <Placemark>
        <name>COLD STONE CREAMERY</name>
        <description><![CDATA[8714 PACIFIC ST]]></description>
        <styleUrl>#gv_waypoint</styleUrl>
        <Point>
          <altitudeMode>clampToGround</altitudeMode>
          <coordinates>-96.047694632,41.248856177,0</coordinates>
        </Point>
      </Placemark>
      <Placemark>
        <name>COLD STONE CREAMERY</name>
        <description><![CDATA[2055 NO 120 ST]]></description>
        <styleUrl>#gv_waypoint</styleUrl>
        <Point>
          <altitudeMode>clampToGround</altitudeMode>
          <coordinates>-96.100441942,41.27894312,0</coordinates>
        </Point>
      </Placemark>
      <Placemark>
        <name>COLD STONE CREAMERY</name>
        <description><![CDATA[3220 FARNAM ST]]></description>
        <styleUrl>#gv_waypoint</styleUrl>
        <Point>
          <altitudeMode>clampToGround</altitudeMode>
          <coordinates>-95.96060043,41.257768458,0</coordinates>
        </Point>
      </Placemark>
      <Placemark>
        <name>COLLEGE OF ST MARYS</name>
        <description><![CDATA[7000 MERCY RD]]></description>
        <styleUrl>#gv_waypoint</styleUrl>
        <Point>
          <altitudeMode>clampToGround</altitudeMode>
          <coordinates>-96.020331747,41.237901571,0</coordinates>
        </Point>
      </Placemark>
      <Placemark>
        <name>COME INTO MY KITCHEN</name>
        <description><![CDATA[5423 LEAVENWORTH ST]]></description>
        <styleUrl>#gv_waypoint</styleUrl>
        <Point>
          <altitudeMode>clampToGround</altitudeMode>
          <coordinates>-95.997722792,41.252362669,0</coordinates>
        </Point>
      </Placemark>
      <Placemark>
        <name>COMFORT INN</name>
        <description><![CDATA[10728 L ST]]></description>
        <styleUrl>#gv_waypoint</styleUrl>
        <Point>
          <altitudeMode>clampToGround</altitudeMode>
          <coordinates>-96.079830893,41.212612636,0</coordinates>
        </Point>
      </Placemark>
      <Placemark>
        <name>COMFORT INN AT THE ZOO</name>
        <description><![CDATA[2920 SO 13 CT]]></description>
        <styleUrl>#gv_waypoint</styleUrl>
        <Point>
          <altitudeMode>clampToGround</altitudeMode>
          <coordinates>-95.934509446,41.230769947,0</coordinates>
        </Point>
      </Placemark>
      <Placemark>
        <name>COMFORT INN &amp; SUITES</name>
        <description><![CDATA[7007 GROVER ST]]></description>
        <styleUrl>#gv_waypoint</styleUrl>
        <Point>
          <altitudeMode>clampToGround</altitudeMode>
          <coordinates>-96.022121398,41.227010781,0</coordinates>
        </Point>
      </Placemark>
      <Placemark>
        <name>COMMON GROUND</name>
        <description><![CDATA[1701 VETERANS DR]]></description>
        <styleUrl>#gv_waypoint</styleUrl>
        <Point>
          <altitudeMode>clampToGround</altitudeMode>
          <coordinates>-96.230565258,41.27325609,0</coordinates>
        </Point>
      </Placemark>
      <Placemark>
        <name>COMMUNITY ALLIANCE INC</name>
        <description><![CDATA[7117 JONES ST]]></description>
        <styleUrl>#gv_waypoint</styleUrl>
        <Point>
          <altitudeMode>clampToGround</altitudeMode>
          <coordinates>-96.022404247,41.25519543,0</coordinates>
        </Point>
      </Placemark>
      <Placemark>
        <name>CONAGRA - OMAHA A PLANT</name>
        <description><![CDATA[1521 NO 16 ST]]></description>
        <styleUrl>#gv_waypoint</styleUrl>
        <Point>
          <altitudeMode>clampToGround</altitudeMode>
          <coordinates>-95.937468216,41.274108276,0</coordinates>
        </Point>
      </Placemark>
      <Placemark>
        <name>CONAGRA - OMAHA B PLANT</name>
        <description><![CDATA[29 &amp; C ST]]></description>
        <styleUrl>#gv_waypoint</styleUrl>
        <Point>
          <altitudeMode>clampToGround</altitudeMode>
          <coordinates>-95.94059,41.26069,0</coordinates>
        </Point>
      </Placemark>
      <Placemark>
        <name>CONESTOGA SCHOOL CAFETERIA</name>
        <description><![CDATA[2115 BURDETTE ST]]></description>
        <styleUrl>#gv_waypoint</styleUrl>
        <Point>
          <altitudeMode>clampToGround</altitudeMode>
          <coordinates>-95.943844409,41.278748778,0</coordinates>
        </Point>
      </Placemark>
      <Placemark>
        <name>COOKIE COMPANY (THE)</name>
        <description><![CDATA[3001 SO 144 ST]]></description>
        <styleUrl>#gv_waypoint</styleUrl>
        <Point>
          <altitudeMode>clampToGround</altitudeMode>
          <coordinates>-96.138380898,41.229154417,0</coordinates>
        </Point>
      </Placemark>
      <Placemark>
        <name>COOKIE COMPANY (THE)</name>
        <description><![CDATA[10000 CALIFORNIA ST]]></description>
        <styleUrl>#gv_waypoint</styleUrl>
        <Point>
          <altitudeMode>clampToGround</altitudeMode>
          <coordinates>-96.067011028,41.264523029,0</coordinates>
        </Point>
      </Placemark>
      <Placemark>
        <name>COOKIE'S BY DESIGN</name>
        <description><![CDATA[2511 SO 133 PLZ]]></description>
        <styleUrl>#gv_waypoint</styleUrl>
        <Point>
          <altitudeMode>clampToGround</altitudeMode>
          <coordinates>-96.12148428,41.235746839,0</coordinates>
        </Point>
      </Placemark>
      <Placemark>
        <name>CORKSCREW WINE &amp; CHEESE</name>
        <description><![CDATA[10924 PRAIRIE BROOK RD]]></description>
        <styleUrl>#gv_waypoint</styleUrl>
        <Point>
          <altitudeMode>clampToGround</altitudeMode>
          <coordinates>-96.082936162,41.233261871,0</coordinates>
        </Point>
      </Placemark>
      <Placemark>
        <name>CORNER FOOD MART</name>
        <description><![CDATA[2430 SO 24 ST]]></description>
        <styleUrl>#gv_waypoint</styleUrl>
        <Point>
          <altitudeMode>clampToGround</altitudeMode>
          <coordinates>-95.947037002,41.235734205,0</coordinates>
        </Point>
      </Placemark>
      <Placemark>
        <name>CORRIGAN MULTI-PUR SENIOR CT</name>
        <description><![CDATA[3819 X ST]]></description>
        <styleUrl>#gv_waypoint</styleUrl>
        <Point>
          <altitudeMode>clampToGround</altitudeMode>
          <coordinates>-95.972074127,41.199050859,0</coordinates>
        </Point>
      </Placemark>
      <Placemark>
        <name>COSTCO WHOLESALE</name>
        <description><![CDATA[12300 W DODGE RD]]></description>
        <styleUrl>#gv_waypoint</styleUrl>
        <Point>
          <altitudeMode>clampToGround</altitudeMode>
          <coordinates>-96.104650988,41.263484379,0</coordinates>
        </Point>
      </Placemark>
      <Placemark>
        <name>COUNTRY INN/SUITES BY CARLSON</name>
        <description><![CDATA[11818 MIAMI ST]]></description>
        <styleUrl>#gv_waypoint</styleUrl>
        <Point>
          <altitudeMode>clampToGround</altitudeMode>
          <coordinates>-96.099382154,41.282400025,0</coordinates>
        </Point>
      </Placemark>
      <Placemark>
        <name>COUNTRY SLICED HAM</name>
        <description><![CDATA[5030 SO 108 ST]]></description>
        <styleUrl>#gv_waypoint</styleUrl>
        <Point>
          <altitudeMode>clampToGround</altitudeMode>
          <coordinates>-96.081500827,41.207029256,0</coordinates>
        </Point>
      </Placemark>
      <Placemark>
        <name>COURTYARD BY MARRIOTT</name>
        <description><![CDATA[101 SO 10 ST]]></description>
        <styleUrl>#gv_waypoint</styleUrl>
        <Point>
          <altitudeMode>clampToGround</altitudeMode>
          <coordinates>-95.929221433,41.259359395,0</coordinates>
        </Point>
      </Placemark>
      <Placemark>
        <name>COURTYARD BY MARRIOTT/AKSARBEN</name>
        <description><![CDATA[1625 SO 67 ST]]></description>
        <styleUrl>#gv_waypoint</styleUrl>
        <Point>
          <altitudeMode>clampToGround</altitudeMode>
          <coordinates>-96.014639039,41.243126632,0</coordinates>
        </Point>
      </Placemark>
      <Placemark>
        <name>CRANE COFFEE</name>
        <description><![CDATA[3027 SO 84 ST]]></description>
        <styleUrl>#gv_waypoint</styleUrl>
        <Point>
          <altitudeMode>clampToGround</altitudeMode>
          <coordinates>-96.043111574,41.230985785,0</coordinates>
        </Point>
      </Placemark>
      <Placemark>
        <name>CRANE COFFEE</name>
        <description><![CDATA[7772 CASS ST]]></description>
        <styleUrl>#gv_waypoint</styleUrl>
        <Point>
          <altitudeMode>clampToGround</altitudeMode>
          <coordinates>-96.035242507,41.263298425,0</coordinates>
        </Point>
      </Placemark>
      <Placemark>
        <name>CRANE COFFEE</name>
        <description><![CDATA[3695 NO 129 ST]]></description>
        <styleUrl>#gv_waypoint</styleUrl>
        <Point>
          <altitudeMode>clampToGround</altitudeMode>
          <coordinates>-96.115095391,41.292138186,0</coordinates>
        </Point>
      </Placemark>
      <Placemark>
        <name>CRANE COFFEE</name>
        <description><![CDATA[15310 WEIR ST]]></description>
        <styleUrl>#gv_waypoint</styleUrl>
        <Point>
          <altitudeMode>clampToGround</altitudeMode>
          <coordinates>-96.153908049,41.206299395,0</coordinates>
        </Point>
      </Placemark>
      <Placemark>
        <name>CRANE COFFEE</name>
        <description><![CDATA[5923 CENTER ST]]></description>
        <styleUrl>#gv_waypoint</styleUrl>
        <Point>
          <altitudeMode>clampToGround</altitudeMode>
          <coordinates>-96.004242876,41.237865598,0</coordinates>
        </Point>
      </Placemark>
      <Placemark>
        <name>CRANE COFFEE/METHODIST WOMENS HOSPITAL</name>
        <description><![CDATA[707 NO 192 ST]]></description>
        <styleUrl>#gv_waypoint</styleUrl>
        <Point>
          <altitudeMode>clampToGround</altitudeMode>
          <coordinates>-95.94059,41.26069,0</coordinates>
        </Point>
      </Placemark>
      <Placemark>
        <name>CREIGHTON UNIV/HARPER CENTER</name>
        <description><![CDATA[602 NO 20 ST]]></description>
        <styleUrl>#gv_waypoint</styleUrl>
        <Point>
          <altitudeMode>clampToGround</altitudeMode>
          <coordinates>-95.942414487,41.265124049,0</coordinates>
        </Point>
      </Placemark>
      <Placemark>
        <name>CREIGHTON UNIV/MED CENTER</name>
        <description><![CDATA[601 NO 30 ST]]></description>
        <styleUrl>#gv_waypoint</styleUrl>
        <Point>
          <altitudeMode>clampToGround</altitudeMode>
          <coordinates>-95.956533843,41.265780554,0</coordinates>
        </Point>
      </Placemark>
      <Placemark>
        <name>CRESCENT MOON ALE HOUSE</name>
        <description><![CDATA[3578 FARNAM ST]]></description>
        <styleUrl>#gv_waypoint</styleUrl>
        <Point>
          <altitudeMode>clampToGround</altitudeMode>
          <coordinates>-95.966318466,41.257749608,0</coordinates>
        </Point>
      </Placemark>
      <Placemark>
        <name>CROWN PLAZA OMAHA OLD MILL</name>
        <description><![CDATA[655 NO 108 ST]]></description>
        <styleUrl>#gv_waypoint</styleUrl>
        <Point>
          <altitudeMode>clampToGround</altitudeMode>
          <coordinates>-96.082817073,41.266466375,0</coordinates>
        </Point>
      </Placemark>
      <Placemark>
        <name>CROWN POINTE</name>
        <description><![CDATA[2820 SO 80 ST]]></description>
        <styleUrl>#gv_waypoint</styleUrl>
        <Point>
          <altitudeMode>clampToGround</altitudeMode>
          <coordinates>-96.0363127,41.232748456,0</coordinates>
        </Point>
      </Placemark>
      <Placemark>
        <name>CRYSTAL CLEAR WATER INC</name>
        <description><![CDATA[1675 IDA ST]]></description>
        <styleUrl>#gv_waypoint</styleUrl>
        <Point>
          <altitudeMode>clampToGround</altitudeMode>
          <coordinates>-95.940336105,41.320296592,0</coordinates>
        </Point>
      </Placemark>
      <Placemark>
        <name>CT JEWEL OMAHA</name>
        <description><![CDATA[4955 SO 72 ST]]></description>
        <styleUrl>#gv_waypoint</styleUrl>
        <Point>
          <altitudeMode>clampToGround</altitudeMode>
          <coordinates>-96.023722192,41.209276151,0</coordinates>
        </Point>
      </Placemark>
      <Placemark>
        <name>CUBBY'S</name>
        <description><![CDATA[9220 MORMON BRIDGE RD]]></description>
        <styleUrl>#gv_waypoint</styleUrl>
        <Point>
          <altitudeMode>clampToGround</altitudeMode>
          <coordinates>-95.983207734,41.343059296,0</coordinates>
        </Point>
      </Placemark>
      <Placemark>
        <name>CULVER'S BUTTERBURGERS</name>
        <description><![CDATA[15255 WEIR PLZ]]></description>
        <styleUrl>#gv_waypoint</styleUrl>
        <Point>
          <altitudeMode>clampToGround</altitudeMode>
          <coordinates>-96.1544162,41.206267602,0</coordinates>
        </Point>
      </Placemark>
      <Placemark>
        <name>CULVER'S BUTTERBURGERS</name>
        <description><![CDATA[11920 MIAMI]]></description>
        <styleUrl>#gv_waypoint</styleUrl>
        <Point>
          <altitudeMode>clampToGround</altitudeMode>
          <coordinates>-96.099727421,41.282320427,0</coordinates>
        </Point>
      </Placemark>
      <Placemark>
        <name>CUPCAKE ISLAND</name>
        <description><![CDATA[1314 SO 119 ST]]></description>
        <styleUrl>#gv_waypoint</styleUrl>
        <Point>
          <altitudeMode>clampToGround</altitudeMode>
          <coordinates>-96.098825577,41.246411679,0</coordinates>
        </Point>
      </Placemark>
      <Placemark>
        <name>CVS PHARMACY</name>
        <description><![CDATA[10770 FORT ST]]></description>
        <styleUrl>#gv_waypoint</styleUrl>
        <Point>
          <altitudeMode>clampToGround</altitudeMode>
          <coordinates>-96.080811154,41.306708699,0</coordinates>
        </Point>
      </Placemark>
      <Placemark>
        <name>CVS PHARMACY</name>
        <description><![CDATA[14460 W MAPLE RD]]></description>
        <styleUrl>#gv_waypoint</styleUrl>
        <Point>
          <altitudeMode>clampToGround</altitudeMode>
          <coordinates>-96.139842652,41.292265588,0</coordinates>
        </Point>
      </Placemark>
      <Placemark>
        <name>DAIRY CHEF</name>
        <description><![CDATA[611 GATEWAY RD]]></description>
        <styleUrl>#gv_waypoint</styleUrl>
        <Point>
          <altitudeMode>clampToGround</altitudeMode>
          <coordinates>-96.233854108,41.286129184,0</coordinates>
        </Point>
      </Placemark>
      <Placemark>
        <name>DAIRY QUEEN</name>
        <description><![CDATA[1922 NO 72 ST]]></description>
        <styleUrl>#gv_waypoint</styleUrl>
        <Point>
          <altitudeMode>clampToGround</altitudeMode>
          <coordinates>-96.023893063,41.277103018,0</coordinates>
        </Point>
      </Placemark>
      <Placemark>
        <name>DAIRY QUEEN</name>
        <description><![CDATA[6051 AMES AVE]]></description>
        <styleUrl>#gv_waypoint</styleUrl>
        <Point>
          <altitudeMode>clampToGround</altitudeMode>
          <coordinates>-96.006221385,41.299469157,0</coordinates>
        </Point>
      </Placemark>
      <Placemark>
        <name>DAIRY QUEEN</name>
        <description><![CDATA[13150 W MAPLE RD]]></description>
        <styleUrl>#gv_waypoint</styleUrl>
        <Point>
          <altitudeMode>clampToGround</altitudeMode>
          <coordinates>-96.118124025,41.292256594,0</coordinates>
        </Point>
      </Placemark>
      <Placemark>
        <name>DAIRY QUEEN/ORANGE JULIUS</name>
        <description><![CDATA[10000 CALIFORNIA]]></description>
        <styleUrl>#gv_waypoint</styleUrl>
        <Point>
          <altitudeMode>clampToGround</altitudeMode>
          <coordinates>-96.067011028,41.264523029,0</coordinates>
        </Point>
      </Placemark>
      <Placemark>
        <name>DAIRY QUEEN/WEST DODGE</name>
        <description><![CDATA[404 NO 114 ST]]></description>
        <styleUrl>#gv_waypoint</styleUrl>
        <Point>
          <altitudeMode>clampToGround</altitudeMode>
          <coordinates>-96.090982486,41.262426083,0</coordinates>
        </Point>
      </Placemark>